# Time (s),Altitude (ft),Vertical velocity (m/s),Vertical acceleration (m/s²),Position East of launch (ft),Position North of launch (ft),Latitude (° N),Longitude (° E),Roll rate (r/s),Pitch rate (r/s),Yaw rate (r/s),Air temperature (°F),Air pressure (mbar)
0,0,0,0,0,0,28.61,-80.6,0,0,0,59,1013
0.011,0.003,0.232,48.682,-0,0,28.61,-80.6,0,0,0,59,1013
0.021,0.02,0.72,48.892,-0,0,28.61,-80.6,0,0,0,59,1013
0.031,0.049,1.21,49.103,-0,0,28.61,-80.6,0,0,0,59,1013
0.041,0.098,1.702,49.314,-0,0,28.61,-80.6,0,0,0,59,1013
0.051,0.161,2.196,49.524,-0,0,28.61,-80.6,0,0,0,59,1013
0.055,0.19,2.394,49.608,-0,0,28.61,-80.6,0,0,0,59,1013
0.061,0.243,2.691,49.353,-0,0,28.61,-80.6,0,0,0,59,1013
0.07,0.328,3.134,48.969,-0,0,28.61,-80.6,0,0,0,58.998,1013
0.08,0.44,3.621,48.542,-0,0,28.61,-80.6,0,0,0,58.998,1013
0.089,0.551,4.056,48.157,-0,0,28.61,-80.6,0,0,0,58.998,1013
0.099,0.692,4.541,48.725,-0,0,28.61,-80.6,0,0,0,58.998,1013
0.109,0.85,5.031,49.293,-0,0,28.61,-80.6,0,0,0,58.996,1013
0.119,1.024,5.527,49.861,-0,0,28.61,-80.6,0,0,0,58.996,1013
0.129,1.214,6.028,50.429,-0,0,28.61,-80.6,0,0,0,58.996,1013
0.139,1.417,6.535,50.998,-0,0,28.61,-80.6,0,0,0,58.995,1013
0.149,1.64,7.048,51.567,-0,0,28.61,-80.6,0,0,0,58.995,1013
0.155,1.785,7.358,51.908,-0,0,28.61,-80.6,0,0,0,58.993,1013
0.164,2.008,7.826,52.008,-0,0,28.61,-80.6,0,0,0,58.993,1013
0.174,2.274,8.347,52.119,-0,0,28.61,-80.6,0,0,0,58.991,1013
0.184,2.556,8.868,52.231,-0,0,28.61,-80.6,0,0,0,58.991,1013
0.194,2.854,9.391,52.342,-0,0,28.61,-80.6,0,0,0,58.989,1013
0.2,3.041,9.705,52.408,-0,0,28.61,-80.6,0,0,0,58.989,1013
0.209,3.337,10.177,52.461,-0,0,28.61,-80.6,0,0,0,58.987,1013
0.219,3.678,10.702,52.519,-0,0,28.61,-80.6,0,0,0,58.987,1013
0.229,4.039,11.228,52.578,-0,0,28.61,-80.6,0,0,0,58.986,1013
0.239,4.416,11.754,52.636,-0,0,28.61,-80.6,0,0,0,58.984,1013
0.249,4.81,12.28,52.694,-0,0,28.61,-80.6,0,0,0,58.982,1013
0.259,5.22,12.808,52.752,-0,0,28.61,-80.6,0,0,0,58.982,1013
0.269,5.65,13.336,52.81,-0.001,0,28.61,-80.6,0,0,0,58.98,1013
0.279,6.096,13.864,52.868,-0.001,0,28.61,-80.6,0,0,0,58.978,1013
0.289,6.558,14.393,52.925,-0.001,0,28.61,-80.6,0,0,0,58.977,1013
0.3,7.09,14.975,52.989,-0.001,0,28.61,-80.6,0,0,0,58.975,1013
0.31,7.589,15.506,53.068,-0.001,0,28.61,-80.6,0,0,0,58.973,1013
0.32,8.107,16.037,53.147,-0.001,0,28.61,-80.6,0,0,0,58.971,1013
0.33,8.642,16.569,53.226,-0.001,0,28.61,-80.6,0,0,0,58.969,1013
0.34,9.193,17.101,53.305,-0.001,0,28.61,-80.6,0,0,0,58.968,1013
0.35,9.764,17.635,53.384,-0.001,0,28.61,-80.6,0,0,0,58.966,1013
0.36,10.351,18.169,53.463,-0.001,0,28.61,-80.6,0,0,0,58.962,1013
0.37,10.955,18.704,53.542,-0.001,0,28.61,-80.6,0,0,0,58.96,1013
0.38,11.578,19.24,53.621,-0.001,0,28.61,-80.6,0,0,0,58.959,1013
0.39,12.218,19.776,53.699,-0.001,0,28.61,-80.6,0,0,0,58.957,1013
0.4,12.877,20.314,53.778,-0.001,0,28.61,-80.6,0,0,0,58.953,1013
0.41,13.553,20.852,53.878,-0.001,0,28.61,-80.6,0,0,0,58.951,1013
0.42,14.245,21.391,53.978,-0.001,0,28.61,-80.6,0,0,0,58.95,1013
0.43,14.954,21.932,54.079,-0.001,0,28.61,-80.6,0,0,0,58.946,1013
0.44,15.682,22.473,54.179,-0.001,0,28.61,-80.6,0,0,0,58.944,1013
0.455,16.811,23.287,54.328,-0.001,0,28.61,-80.6,0,0,0,58.941,1013
0.478,18.573,24.512,54.553,-0.002,0,28.61,-80.6,0,0.001,-0,58.933,1013
0.5,20.43,25.742,54.777,-0.003,0,28.61,-80.6,0,0.002,-0,58.928,1013
0.534,23.383,27.596,55.114,-0.007,0,28.61,-80.6,0,0.003,-0,58.917,1012
0.584,28.136,30.364,55.611,-0.016,-0,28.61,-80.6,0,0.005,-0,58.899,1012
0.6,29.777,31.269,55.772,-0.02,-0,28.61,-80.6,0,0.006,-0,58.894,1012
0.624,32.333,32.63,55.907,-0.026,-0,28.61,-80.6,0,0.007,-0,58.885,1012
0.661,36.371,34.678,56.109,-0.039,-0,28.61,-80.6,0,0.008,-0,58.87,1012
0.7,40.955,36.874,56.322,-0.052,-0,28.61,-80.6,0,0.01,-0,58.854,1012
0.75,47.234,39.702,56.813,-0.069,-0,28.61,-80.6,0,0.012,-0,58.831,1012
0.8,53.983,42.555,57.299,-0.085,-0,28.61,-80.6,0,0.014,-0,58.807,1011
0.85,61.198,45.429,57.671,-0.098,-0,28.61,-80.6,0,0.016,-0,58.782,1011
0.9,68.888,48.322,58.036,-0.105,-0,28.61,-80.6,0,0.018,-0,58.755,1011
0.95,77.054,51.222,57.954,-0.098,0,28.61,-80.6,0,0.019,-0,58.725,1010
1,85.692,54.117,57.861,-0.079,0,28.61,-80.6,0,0.02,-0,58.694,1010
1.05,94.806,57.016,58.087,-0.036,0,28.61,-80.6,0,-0.02,-0,58.662,1010
1.1,104.4,59.926,58.307,0.03,0,28.61,-80.6,0,-0.019,-0,58.627,1010
1.15,114.469,62.838,58.187,0.125,0,28.61,-80.6,0,-0.018,-0,58.591,1009
1.2,125.016,65.745,58.057,0.253,0,28.61,-80.6,0,-0.015,-0,58.554,1009
1.25,136.037,68.647,58.04,0.42,0,28.61,-80.6,0,-0.012,-0,58.514,1008
1.3,147.536,71.548,58.018,0.63,0,28.61,-80.6,0,-0.008,0,58.474,1008
1.35,159.511,74.443,57.785,0.886,0,28.61,-80.6,0,-0.004,0,58.431,1008
1.4,171.959,77.327,57.56,1.191,0,28.61,-80.6,0,0,0,58.386,1007
1.45,184.882,80.197,57.237,1.539,0,28.61,-80.6,0,0.004,0,58.341,1007
1.5,198.271,83.051,56.918,1.936,0,28.61,-80.6,0,0.008,0,58.293,1006
1.55,212.126,85.883,56.379,2.375,0,28.61,-80.6,0,0.01,0,58.244,1006
1.6,226.447,88.688,55.827,2.854,0,28.61,-80.6,0,0.012,0,58.192,1005
1.65,241.224,91.472,55.499,3.369,0,28.61,-80.6,0,0.013,0,58.14,1005
1.7,256.457,94.238,55.171,3.917,0,28.61,-80.6,0,-0.013,0,58.086,1004
1.75,272.139,96.988,54.827,4.488,0,28.61,-80.6,0,-0.011,0,58.03,1004
1.8,288.274,99.721,54.471,5.082,0,28.61,-80.6,0,-0.008,0,57.972,1003
1.85,304.856,102.43,53.877,5.696,0,28.61,-80.6,0,-0.004,0,57.913,1002
1.9,321.88,105.108,53.274,6.325,0,28.61,-80.6,0,0,0,57.852,1002
1.95,339.337,107.762,52.882,6.969,0,28.61,-80.6,0,0.005,0,57.79,1001
2,357.234,110.396,52.475,7.631,0.001,28.61,-80.6,0,0.008,0,57.726,1000
2.05,375.558,113.007,51.951,8.307,0.001,28.61,-80.6,0,0.011,0,57.661,999.8
2.1,394.308,115.591,51.413,9.009,0.001,28.61,-80.6,0,0.012,0,57.594,999.2
2.15,413.478,118.139,50.516,9.734,0.001,28.61,-80.6,0,-0.012,0,57.526,998.5
2.2,433.064,120.643,49.607,10.492,0.001,28.61,-80.6,0,-0.01,0,57.456,997.8
2.227,443.809,121.944,46.807,10.915,0.001,28.61,-80.6,0,-0.008,0,57.418,997.4
2.25,453.048,122.87,33.712,11.283,0.001,28.61,-80.6,0,-0.006,0,57.384,997.1
2.285,467.014,123.848,22.996,11.847,0.001,28.61,-80.6,0,-0.003,0,57.335,996.6
2.29,469.252,123.97,21.29,11.939,0.001,28.61,-80.6,0,-0.003,0,57.326,996.5
2.298,472.608,124.142,20.437,12.077,0.001,28.61,-80.6,0,-0.002,0,57.315,996.4
2.311,477.654,124.387,19.16,12.283,0.001,28.61,-80.6,0,-0.001,0,57.297,996.2
2.329,485.24,124.725,17.249,12.595,0.001,28.61,-80.6,0,0,0,57.27,995.9
2.357,496.654,125.165,14.383,13.071,0.001,28.61,-80.6,0,0.002,0,57.229,995.5
2.366,500.338,125.29,13.459,13.225,0.001,28.61,-80.6,0,0.003,0,57.216,995.4
2.379,505.873,125.45,10.276,13.458,0.001,28.61,-80.6,0,0.004,0,57.196,995.2
2.4,514.334,125.611,5.419,13.816,0.001,28.61,-80.6,0,0.005,0,57.166,994.9
2.431,527.041,125.672,-1.474,14.357,0.001,28.61,-80.6,0,0.006,0,57.121,994.4
2.44,530.827,125.649,-3.524,14.518,0.001,28.61,-80.6,0,0.006,0,57.106,994.3
2.454,536.499,125.588,-5.307,14.76,0.001,28.61,-80.6,0,0.007,0,57.087,994.1
2.474,545.007,125.451,-7.976,15.125,0.001,28.61,-80.6,0,0.007,0,57.056,993.8
2.5,555.525,125.205,-11.277,15.577,0.001,28.61,-80.6,0,-0.007,0,57.018,993.4
2.538,571.253,124.754,-12.202,16.253,0.001,28.61,-80.6,0,-0.007,0,56.962,992.8
2.588,591.667,124.114,-13.412,17.136,0.002,28.61,-80.6,0,-0.005,0,56.89,992.1
2.6,596.404,123.956,-13.694,17.339,0.002,28.61,-80.6,0,-0.005,0,56.872,991.9
2.617,603.494,123.718,-13.673,17.644,0.002,28.61,-80.6,0,-0.004,0,56.847,991.7
2.644,614.104,123.36,-13.644,18.1,0.002,28.61,-80.6,0,-0.002,0,56.809,991.3
2.683,629.964,122.825,-13.606,18.78,0.002,28.61,-80.6,0,0,0,56.754,990.7
2.733,650.059,122.146,-13.569,19.642,0.002,28.61,-80.6,0,0.003,0,56.682,990
2.783,670.039,121.468,-13.542,20.495,0.002,28.61,-80.6,0,0.005,0,56.611,989.3
2.833,689.908,120.791,-13.514,21.345,0.002,28.61,-80.6,0,-0.005,0,56.539,988.6
2.883,709.669,120.117,-13.481,22.195,0.002,28.61,-80.6,0,-0.004,0,56.469,987.9
2.933,729.318,119.443,-13.45,23.045,0.002,28.61,-80.6,0,-0.002,0,56.399,987.2
2.983,748.855,118.772,-13.398,23.894,0.003,28.61,-80.6,0,-0,0,56.329,986.5
3.033,768.284,118.103,-13.349,24.747,0.003,28.61,-80.6,0,0.001,0,56.26,985.8
3.083,787.605,117.437,-13.296,25.6,0.003,28.61,-80.6,0,0.002,0,56.192,985.1
3.133,806.814,116.774,-13.25,26.45,0.003,28.61,-80.6,0,0.002,0,56.124,984.4
3.183,825.915,116.112,-13.205,27.3,0.003,28.61,-80.6,0,-0.002,0,56.055,983.7
3.233,844.908,115.453,-13.165,28.15,0.003,28.61,-80.6,0,-0.002,0,55.987,983
3.283,863.796,114.796,-13.118,28.996,0.003,28.61,-80.6,0,-0.002,0,55.92,982.4
3.333,882.572,114.141,-13.073,29.839,0.003,28.61,-80.6,0,-0.001,-0,55.852,981.7
3.383,901.243,113.489,-13.029,30.676,0.003,28.61,-80.6,0,0,0,55.785,981
3.433,919.806,112.838,-12.989,31.512,0.003,28.61,-80.6,0,0.002,0,55.72,980.4
3.483,938.264,112.19,-12.953,32.346,0.003,28.61,-80.6,0,0.003,0,55.654,979.7
3.533,956.614,111.543,-12.917,33.173,0.003,28.61,-80.6,0,0.004,0,55.589,979.1
3.583,974.859,110.898,-12.885,33.996,0.003,28.61,-80.6,0,0.005,0,55.524,978.4
3.633,992.999,110.254,-12.855,34.816,0.003,28.61,-80.6,0,-0.005,0,55.459,977.8
3.683,1011.03,109.612,-12.825,35.64,0.003,28.61,-80.6,0,-0.004,0,55.395,977.1
3.733,1028.96,108.972,-12.798,36.46,0.003,28.61,-80.6,0,-0.004,0,55.33,976.5
3.783,1046.781,108.333,-12.764,37.28,0.007,28.61,-80.6,0,-0.002,0,55.267,975.8
3.833,1064.501,107.695,-12.732,38.1,0.007,28.61,-80.6,0,-0,0,55.204,975.2
3.883,1082.116,107.06,-12.687,38.924,0.007,28.61,-80.6,0,0.002,0,55.141,974.6
3.933,1099.626,106.426,-12.643,39.751,0.007,28.61,-80.6,0,0.003,0,55.078,973.9
3.983,1117.034,105.795,-12.6,40.574,0.007,28.61,-80.6,0,0.003,0,55.017,973.3
4.033,1134.337,105.166,-12.558,41.398,0.007,28.61,-80.6,0,-0.003,0,54.955,972.7
4.083,1151.535,104.54,-12.518,42.218,0.007,28.61,-80.6,0,-0.003,0,54.894,972.1
4.133,1168.635,103.915,-12.479,43.035,0.007,28.61,-80.6,0,-0.001,0,54.833,971.5
4.183,1185.63,103.292,-12.446,43.848,0.007,28.61,-80.6,0,-0,0,54.772,970.9
4.233,1202.523,102.67,-12.411,44.659,0.007,28.61,-80.6,0,0.001,0,54.712,970.3
4.283,1219.314,102.05,-12.38,45.469,0.007,28.61,-80.6,0,0.002,0,54.651,969.7
4.333,1236.004,101.432,-12.351,46.273,0.007,28.61,-80.6,0,0.003,-0,54.592,969.1
4.383,1252.592,100.815,-12.322,47.073,0.007,28.61,-80.6,0,0.003,-0,54.532,968.5
4.433,1269.078,100.2,-12.295,47.874,0.007,28.61,-80.6,0,-0.003,-0,54.475,967.9
4.483,1285.466,99.586,-12.266,48.671,0.007,28.61,-80.6,0,-0.003,-0,54.415,967.3
4.533,1301.752,98.973,-12.233,49.469,0.007,28.61,-80.6,0,-0.003,0,54.358,966.7
4.583,1317.936,98.362,-12.2,50.266,0.007,28.61,-80.6,0,-0.003,0,54.3,966.1
4.633,1334.022,97.753,-12.172,51.06,0.01,28.61,-80.6,0,-0.003,0,54.243,965.6
4.683,1350.01,97.145,-12.14,51.854,0.01,28.61,-80.6,0,-0.003,0,54.185,965
4.733,1365.896,96.539,-12.103,52.644,0.01,28.61,-80.6,0,0.003,0,54.129,964.4
4.783,1381.683,95.935,-12.073,53.435,0.01,28.61,-80.6,0,0.003,0,54.073,963.9
4.833,1397.369,95.332,-12.05,54.222,0.01,28.61,-80.6,0,-0.003,0,54.018,963.3
4.883,1412.959,94.73,-12.024,55.01,0.01,28.61,-80.6,0,-0.003,0,53.962,962.7
4.933,1428.448,94.129,-11.999,55.797,0.01,28.61,-80.6,0,-0.002,0,53.906,962.2
4.983,1443.842,93.53,-11.972,56.581,0.01,28.61,-80.6,0,-0.002,0,53.85,961.6
5.033,1459.134,92.932,-11.94,57.369,0.01,28.61,-80.6,0,-0.001,0,53.796,961.1
5.083,1474.331,92.336,-11.905,58.153,0.01,28.61,-80.6,0,-0.001,0,53.742,960.5
5.133,1489.429,91.742,-11.876,58.937,0.01,28.61,-80.6,0,-0.001,-0,53.688,960
5.183,1504.429,91.149,-11.843,59.718,0.01,28.61,-80.6,0,0.001,-0,53.634,959.5
5.233,1519.334,90.557,-11.816,60.499,0.01,28.61,-80.6,0,0.001,-0,53.582,958.9
5.283,1534.14,89.967,-11.79,61.28,0.01,28.61,-80.6,0,0.001,-0,53.53,958.4
5.333,1548.852,89.378,-11.765,62.054,0.013,28.61,-80.6,0,0.002,-0,53.476,957.9
5.383,1563.465,88.79,-11.746,62.831,0.013,28.61,-80.6,0,-0.001,-0,53.424,957.4
5.433,1577.982,88.204,-11.718,63.606,0.013,28.61,-80.6,0,-0.001,0,53.373,956.8
5.483,1592.402,87.619,-11.689,64.38,0.013,28.61,-80.6,0,-0.001,0,53.321,956.3
5.533,1606.729,87.035,-11.665,65.154,0.013,28.61,-80.6,0,-0,0,53.271,955.8
5.583,1620.958,86.452,-11.638,65.925,0.013,28.61,-80.6,0,-0,0,53.22,955.3
5.633,1635.092,85.871,-11.614,66.696,0.013,28.61,-80.6,0,-0,0,53.17,954.8
5.683,1649.131,85.291,-11.586,67.467,0.013,28.61,-80.6,0,0,0,53.119,954.3
5.733,1663.074,84.712,-11.556,68.238,0.013,28.61,-80.6,0,-0,-0,53.069,953.8
5.783,1676.923,84.135,-11.527,69.006,0.013,28.61,-80.6,0,0,-0,53.02,953.4
5.833,1690.679,83.56,-11.499,69.77,0.013,28.61,-80.6,0,0.001,-0,52.97,952.9
5.883,1704.337,82.985,-11.472,70.535,0.013,28.61,-80.6,0,0.001,-0,52.921,952.4
5.933,1717.904,82.412,-11.447,71.296,0.016,28.61,-80.6,0,0.002,-0,52.873,952
5.983,1731.375,81.841,-11.428,72.054,0.016,28.61,-80.6,0,0.003,-0,52.826,951.5
6.033,1744.754,81.27,-11.411,72.808,0.016,28.61,-80.6,0,0.004,-0,52.777,951.1
6.083,1758.038,80.7,-11.389,73.563,0.016,28.61,-80.6,0,0.004,0,52.731,950.6
6.133,1771.23,80.131,-11.366,74.314,0.016,28.61,-80.6,0,0.004,0,52.684,950.2
6.183,1784.331,79.563,-11.342,75.066,0.016,28.61,-80.6,0,0.004,0,52.637,949.7
6.233,1797.336,78.996,-11.321,75.817,0.016,28.61,-80.6,0,0.004,0,52.59,949.3
6.283,1810.246,78.431,-11.307,76.565,0.016,28.61,-80.6,0,-0.004,0,52.545,948.8
6.333,1823.068,77.866,-11.289,77.313,0.016,28.61,-80.6,0,-0.004,0,52.498,948.4
6.383,1835.794,77.302,-11.27,78.061,0.016,28.61,-80.6,0,-0.003,0,52.453,948
6.433,1848.428,76.739,-11.255,78.806,0.016,28.61,-80.6,0,-0.003,0,52.408,947.5
6.483,1860.971,76.176,-11.235,79.554,0.02,28.61,-80.6,0,-0.001,0,52.363,947.1
6.533,1873.419,75.615,-11.209,80.302,0.02,28.61,-80.6,0,-0,0,52.318,946.7
6.583,1885.778,75.056,-11.18,81.053,0.02,28.61,-80.6,0,0,0,52.275,946.3
6.633,1898.045,74.497,-11.158,81.801,0.02,28.61,-80.6,0,0,0,52.232,945.8
6.683,1910.22,73.94,-11.136,82.549,0.02,28.61,-80.6,0,0.001,0,52.187,945.4
6.733,1922.303,73.384,-11.112,83.297,0.02,28.61,-80.6,0,0.001,0,52.146,945
6.783,1934.295,72.829,-11.093,84.042,0.02,28.61,-80.6,0,0.001,0,52.102,944.6
6.833,1946.198,72.274,-11.068,84.79,0.02,28.61,-80.6,0,-0.001,0,52.059,944.2
6.883,1958.009,71.722,-11.04,85.535,0.02,28.61,-80.6,0,-0.001,-0,52.018,943.8
6.933,1969.728,71.17,-11.017,86.276,0.02,28.61,-80.6,0,-0,-0,51.976,943.4
6.983,1981.358,70.62,-10.992,87.018,0.02,28.61,-80.6,0,0,-0,51.935,943
7.033,1992.897,70.071,-10.97,87.753,0.023,28.61,-80.6,0,0.002,-0,51.894,942.6
7.083,2004.347,69.523,-10.953,88.488,0.023,28.61,-80.6,0,0.003,0,51.852,942.2
7.133,2015.709,68.976,-10.934,89.219,0.023,28.61,-80.6,0,0.004,0,51.811,941.8
7.183,2026.978,68.43,-10.916,89.948,0.023,28.61,-80.6,0,0.005,0,51.771,941.4
7.233,2038.156,67.884,-10.901,90.676,0.023,28.61,-80.6,0,0.006,0,51.732,941.1
7.283,2049.249,67.339,-10.888,91.398,0.023,28.61,-80.6,0,0.007,0,51.692,940.7
7.333,2060.249,66.795,-10.879,92.119,0.023,28.61,-80.6,0,0.007,0,51.652,940.3
7.383,2071.165,66.252,-10.868,92.841,0.023,28.61,-80.6,0,-0.007,0,51.615,939.9
7.433,2081.988,65.709,-10.854,93.56,0.023,28.61,-80.6,0,-0.007,0,51.575,939.6
7.483,2092.72,65.166,-10.843,94.278,0.026,28.61,-80.6,0,-0.006,0,51.537,939.2
7.533,2103.366,64.624,-10.829,95,0.026,28.61,-80.6,0,-0.005,0,51.499,938.8
7.583,2113.924,64.083,-10.819,95.719,0.026,28.61,-80.6,0,-0.004,0,51.462,938.5
7.633,2124.393,63.543,-10.805,96.44,0.026,28.61,-80.6,0,-0.003,0,51.424,938.1
7.683,2134.77,63.003,-10.787,97.162,0.026,28.61,-80.6,0,-0.002,0,51.388,937.8
7.733,2145.062,62.464,-10.762,97.884,0.026,28.61,-80.6,0,-0.001,0,51.35,937.4
7.783,2155.266,61.926,-10.745,98.609,0.026,28.61,-80.6,0,-0,0,51.314,937.1
7.833,2165.381,61.389,-10.733,99.331,0.026,28.61,-80.6,0,0,0,51.278,936.7
7.883,2175.407,60.853,-10.715,100.056,0.026,28.61,-80.6,0,0.001,0,51.242,936.4
7.933,2185.344,60.318,-10.694,100.781,0.03,28.61,-80.6,0,0.002,0,51.206,936.1
7.983,2195.194,59.784,-10.673,101.506,0.03,28.61,-80.6,0,0.003,0,51.172,935.7
8.033,2204.957,59.251,-10.649,102.231,0.03,28.61,-80.6,0,0.003,0,51.138,935.4
8.083,2214.636,58.719,-10.625,102.956,0.03,28.61,-80.6,0,-0.003,-0,51.102,935.1
8.133,2224.222,58.188,-10.599,103.681,0.03,28.61,-80.6,0,-0.002,-0,51.067,934.7
8.183,2233.724,57.659,-10.579,104.4,0.03,28.61,-80.6,0,-0.001,-0,51.035,934.4
8.233,2243.14,57.13,-10.559,105.118,0.03,28.61,-80.6,0,0,-0,51.001,934.1
8.283,2252.467,56.603,-10.542,105.833,0.03,28.61,-80.6,0,0.001,-0,50.967,933.8
8.333,2261.709,56.076,-10.529,106.545,0.03,28.61,-80.6,0,0.003,-0,50.934,933.5
8.383,2270.866,55.55,-10.518,107.254,0.033,28.61,-80.6,0,0.004,-0,50.902,933.1
8.433,2279.934,55.024,-10.507,107.959,0.033,28.61,-80.6,0,0.005,-0,50.869,932.8
8.483,2288.917,54.499,-10.494,108.665,0.033,28.61,-80.6,0,0.006,-0,50.837,932.5
8.533,2297.815,53.975,-10.484,109.364,0.033,28.61,-80.6,0,0.007,-0,50.806,932.2
8.583,2306.627,53.451,-10.47,110.062,0.033,28.61,-80.6,0,0.008,-0,50.774,931.9
8.633,2315.351,52.928,-10.463,110.761,0.033,28.61,-80.6,0,0.008,-0,50.743,931.6
8.683,2323.993,52.405,-10.459,111.457,0.033,28.61,-80.6,0,0.009,-0,50.713,931.3
8.733,2332.546,51.882,-10.455,112.149,0.033,28.61,-80.6,0,-0.008,0,50.682,931
8.783,2341.014,51.359,-10.447,112.844,0.036,28.61,-80.6,0,-0.008,0,50.652,930.8
8.833,2349.396,50.837,-10.432,113.537,0.036,28.61,-80.6,0,-0.008,0,50.621,930.5
8.883,2357.694,50.316,-10.42,114.232,0.036,28.61,-80.6,0,-0.007,0,50.592,930.2
8.933,2365.902,49.795,-10.412,114.925,0.036,28.61,-80.6,0,-0.007,0,50.563,929.9
8.983,2374.029,49.275,-10.404,115.62,0.036,28.61,-80.6,0,-0.006,0,50.535,929.6
9.033,2382.07,48.755,-10.394,116.316,0.036,28.61,-80.6,0,-0.005,0,50.506,929.4
9.083,2390.026,48.235,-10.384,117.011,0.036,28.61,-80.6,0,-0.005,0,50.477,929.1
9.133,2397.894,47.716,-10.373,117.707,0.036,28.61,-80.6,0,-0.004,0,50.448,928.8
9.183,2405.679,47.198,-10.357,118.402,0.039,28.61,-80.6,0,-0.003,0,50.421,928.5
9.233,2413.379,46.681,-10.336,119.098,0.039,28.61,-80.6,0,-0.003,0,50.394,928.3
9.283,2420.994,46.164,-10.322,119.797,0.039,28.61,-80.6,0,-0.002,0,50.367,928
9.333,2428.527,45.648,-10.314,120.495,0.039,28.61,-80.6,0,-0.002,0,50.34,927.8
9.383,2435.971,45.133,-10.303,121.191,0.039,28.61,-80.6,0,-0.001,0,50.313,927.5
9.433,2443.333,44.618,-10.287,121.89,0.039,28.61,-80.6,0,-0.001,0,50.286,927.3
9.483,2450.61,44.104,-10.269,122.585,0.039,28.61,-80.6,0,-0.001,0,50.261,927
9.533,2457.805,43.591,-10.258,123.284,0.039,28.61,-80.6,0,-0.001,0,50.236,926.8
9.583,2464.911,43.079,-10.243,123.98,0.043,28.61,-80.6,0,0.001,-0,50.211,926.5
9.633,2471.936,42.567,-10.233,124.675,0.043,28.61,-80.6,0,0.001,-0,50.185,926.3
9.683,2478.878,42.055,-10.218,125.371,0.043,28.61,-80.6,0,0.001,-0,50.16,926.1
9.733,2485.735,41.545,-10.204,126.063,0.043,28.61,-80.6,0,0.001,-0,50.135,925.8
9.783,2492.507,41.035,-10.193,126.755,0.043,28.61,-80.6,0,0.002,-0,50.112,925.6
9.833,2499.196,40.526,-10.181,127.448,0.043,28.61,-80.6,0,0.002,-0,50.088,925.4
9.883,2505.804,40.017,-10.168,128.136,0.043,28.61,-80.6,0,0.003,-0,50.065,925.1
9.933,2512.326,39.509,-10.162,128.825,0.046,28.61,-80.6,0,0.003,-0,50.041,924.9
9.983,2518.766,39.001,-10.155,129.514,0.046,28.61,-80.6,0,0.003,-0,50.018,924.7
10.033,2525.121,38.493,-10.144,130.2,0.046,28.61,-80.6,0,0.004,-0,49.995,924.5
10.083,2531.394,37.986,-10.133,130.886,0.046,28.61,-80.6,0,0.004,-0,49.973,924.3
10.133,2537.585,37.48,-10.128,131.572,0.046,28.61,-80.6,0,0.004,-0,49.951,924.1
10.183,2543.691,36.974,-10.121,132.254,0.046,28.61,-80.6,0,0.005,-0,49.928,923.8
10.233,2549.715,36.468,-10.114,132.936,0.046,28.61,-80.6,0,0.005,-0,49.908,923.6
10.283,2555.656,35.962,-10.103,133.619,0.049,28.61,-80.6,0,0.005,-0,49.887,923.4
10.333,2561.516,35.458,-10.092,134.298,0.049,28.61,-80.6,0,0.005,-0,49.865,923.2
10.383,2567.29,34.953,-10.079,134.98,0.049,28.61,-80.6,0,0.005,-0,49.845,923
10.433,2572.982,34.45,-10.068,135.656,0.049,28.61,-80.6,0,0.006,-0,49.824,922.9
10.483,2578.593,33.946,-10.06,136.335,0.049,28.61,-80.6,0,0.006,-0,49.804,922.7
10.533,2584.121,33.444,-10.052,137.011,0.049,28.61,-80.6,0,0.007,-0,49.784,922.5
10.583,2589.564,32.941,-10.04,137.687,0.049,28.61,-80.6,0,0.007,-0,49.766,922.3
10.633,2594.928,32.44,-10.029,138.36,0.052,28.61,-80.6,0,0.008,-0,49.746,922.1
10.683,2600.207,31.938,-10.022,139.032,0.052,28.61,-80.6,0,0.008,-0,49.726,921.9
10.733,2605.404,31.437,-10.013,139.705,0.052,28.61,-80.6,0,0.009,-0,49.708,921.7
10.783,2610.522,30.937,-10.006,140.374,0.052,28.61,-80.6,0,0.009,-0,49.69,921.6
10.833,2615.554,30.437,-10,141.04,0.052,28.61,-80.6,0,0.01,-0,49.672,921.4
10.883,2620.509,29.937,-9.994,141.706,0.052,28.61,-80.6,0,0.011,-0,49.654,921.2
10.933,2625.377,29.437,-9.988,142.372,0.052,28.61,-80.6,0,0.011,-0,49.638,921.1
10.983,2630.164,28.938,-9.981,143.035,0.056,28.61,-80.6,0,0.011,-0,49.62,920.9
11.033,2634.872,28.439,-9.972,143.698,0.056,28.61,-80.6,0,0.012,-0,49.604,920.7
11.083,2639.495,27.941,-9.961,144.36,0.056,28.61,-80.6,0,0.012,-0,49.588,920.6
11.133,2644.039,27.443,-9.958,145.02,0.056,28.61,-80.6,0,0.013,-0,49.572,920.4
11.183,2648.501,26.945,-9.952,145.679,0.056,28.61,-80.6,0,0.013,-0,49.555,920.3
11.233,2652.877,26.448,-9.944,146.335,0.056,28.61,-80.6,0,0.014,-0,49.539,920.1
11.283,2657.175,25.951,-9.935,146.991,0.059,28.61,-80.6,0,0.014,-0,49.525,920
11.333,2661.391,25.454,-9.927,147.648,0.059,28.61,-80.6,0,0.015,-0,49.509,919.8
11.383,2665.528,24.958,-9.924,148.301,0.059,28.61,-80.6,0,0.015,0,49.494,919.7
11.433,2669.58,24.462,-9.918,148.953,0.059,28.61,-80.6,0,0.016,0,49.48,919.6
11.483,2673.553,23.966,-9.916,149.606,0.059,28.61,-80.6,0,0.016,0,49.465,919.4
11.533,2677.444,23.471,-9.91,150.256,0.059,28.61,-80.6,0,0.016,0,49.451,919.3
11.583,2681.253,22.975,-9.906,150.902,0.059,28.61,-80.6,0,0.017,0,49.438,919.2
11.633,2684.98,22.48,-9.9,151.552,0.062,28.61,-80.6,0,0.017,0,49.426,919
11.683,2688.629,21.985,-9.894,152.198,0.062,28.61,-80.6,0,0.017,0,49.411,918.9
11.733,2692.195,21.491,-9.89,152.844,0.062,28.61,-80.6,0,0.018,0,49.399,918.8
11.783,2695.679,20.996,-9.884,153.491,0.062,28.61,-80.6,0,0.018,0,49.386,918.7
11.833,2699.085,20.502,-9.876,154.134,0.062,28.61,-80.6,0,0.018,0,49.375,918.6
11.883,2702.405,20.008,-9.873,154.777,0.062,28.61,-80.6,0,0.018,0,49.363,918.4
11.933,2705.646,19.515,-9.87,155.42,0.066,28.61,-80.6,0,0.019,0,49.352,918.3
11.983,2708.809,19.021,-9.869,156.063,0.066,28.61,-80.6,0,0.019,0,49.339,918.2
12.033,2711.89,18.528,-9.865,156.703,0.066,28.61,-80.6,0,0.019,0,49.329,918.1
12.083,2714.888,18.035,-9.863,157.343,0.066,28.61,-80.6,0,0.019,0,49.318,918
12.133,2717.805,17.542,-9.857,157.982,0.066,28.61,-80.6,0,0.019,0,49.307,917.9
12.183,2720.643,17.049,-9.853,158.622,0.066,28.61,-80.6,0,0.019,0,49.298,917.8
12.233,2723.399,16.557,-9.849,159.262,0.069,28.61,-80.6,0,0.019,0,49.287,917.7
12.283,2726.073,16.064,-9.843,159.898,0.069,28.61,-80.6,0,0.019,0,49.278,917.6
12.333,2728.668,15.572,-9.837,160.535,0.069,28.61,-80.599,0,0.02,0,49.269,917.5
12.383,2731.184,15.081,-9.826,161.171,0.069,28.61,-80.599,0,0.02,0,49.26,917.5
12.433,2733.615,14.59,-9.817,161.808,0.069,28.61,-80.599,0,0.02,0,49.251,917.4
12.483,2735.971,14.099,-9.812,162.444,0.069,28.61,-80.599,0,0.02,0,49.242,917.3
12.533,2738.241,13.608,-9.806,163.077,0.072,28.61,-80.599,0,0.021,0,49.235,917.2
12.583,2740.433,13.118,-9.802,163.711,0.072,28.61,-80.599,0,0.021,0,49.228,917.1
12.633,2742.546,12.628,-9.796,164.344,0.072,28.61,-80.599,0,0.021,0,49.219,917.1
12.683,2744.577,12.138,-9.794,164.974,0.072,28.61,-80.599,0,0.022,0,49.212,917
12.733,2746.529,11.649,-9.788,165.604,0.072,28.61,-80.599,0,0.022,0,49.206,916.9
12.783,2748.399,11.16,-9.783,166.234,0.072,28.61,-80.599,0,0.022,0,49.199,916.9
12.833,2750.19,10.671,-9.779,166.86,0.075,28.61,-80.599,0,0.023,0,49.192,916.8
12.883,2751.9,10.182,-9.772,167.487,0.075,28.61,-80.599,0,0.023,0,49.186,916.8
12.933,2753.53,9.693,-9.768,168.114,0.075,28.61,-80.599,0,0.023,0,49.181,916.7
12.983,2755.082,9.205,-9.761,168.737,0.075,28.61,-80.599,0,0.024,0,49.176,916.6
13.033,2756.552,8.717,-9.755,169.36,0.075,28.61,-80.599,0,0.024,0,49.17,916.6
13.083,2757.94,8.229,-9.75,169.984,0.075,28.61,-80.599,0,0.024,0,49.165,916.6
13.133,2759.252,7.742,-9.743,170.604,0.079,28.61,-80.599,0,0.025,0,49.159,916.5
13.183,2760.482,7.255,-9.738,171.224,0.079,28.61,-80.599,0,0.025,0,49.156,916.5
13.233,2761.631,6.768,-9.735,171.841,0.079,28.61,-80.599,0,0.025,0,49.152,916.4
13.283,2762.7,6.282,-9.73,172.457,0.079,28.61,-80.599,0,0.026,0,49.149,916.4
13.333,2763.691,5.795,-9.723,173.074,0.079,28.61,-80.599,0,0.026,0,49.145,916.4
13.383,2764.603,5.309,-9.716,173.688,0.079,28.61,-80.599,0,0.026,0,49.141,916.3
13.433,2765.433,4.824,-9.705,174.298,0.082,28.61,-80.599,0,0.026,0,49.138,916.3
13.483,2766.184,4.339,-9.697,174.908,0.082,28.61,-80.599,0,0.027,0,49.136,916.3
13.533,2766.857,3.854,-9.693,175.518,0.082,28.61,-80.599,0,0.027,0,49.132,916.2
13.583,2767.451,3.37,-9.688,176.125,0.082,28.61,-80.599,0,0.027,0,49.131,916.2
13.633,2767.963,2.885,-9.677,176.732,0.082,28.61,-80.599,0,0.027,0,49.129,916.2
13.683,2768.396,2.402,-9.661,177.336,0.082,28.61,-80.599,0,0.026,0,49.127,916.2
13.733,2768.75,1.919,-9.643,177.936,0.085,28.61,-80.599,0,0.026,0,49.127,916.2
13.783,2769.026,1.438,-9.626,178.537,0.085,28.61,-80.599,0,0.026,0,49.125,916.2
13.833,2769.222,0.952,-9.727,179.134,0.085,28.61,-80.599,0,0.026,0,49.125,916.2
13.883,2769.337,0.466,-9.722,179.731,0.085,28.61,-80.599,0,0.026,0,49.123,916.2
13.933,2769.377,-0.02,-9.718,180.328,0.085,28.61,-80.599,0,0.026,0,49.123,916.2
13.983,2769.331,-0.506,-9.728,180.922,0.089,28.61,-80.599,NaN,NaN,NaN,49.123,916.2
14.085,2768.993,-1.503,-9.603,182.129,0.089,28.61,-80.599,NaN,NaN,NaN,49.125,916.2
14.189,2768.31,-2.501,-9.467,183.33,0.089,28.61,-80.599,NaN,NaN,NaN,49.127,916.2
14.295,2767.274,-3.498,-9.301,184.518,0.092,28.61,-80.599,NaN,NaN,NaN,49.131,916.2
14.402,2765.869,-4.495,-9.109,185.702,0.092,28.61,-80.599,NaN,NaN,NaN,49.136,916.3
14.511,2764.078,-5.491,-8.899,186.88,0.092,28.61,-80.599,NaN,NaN,NaN,49.143,916.3
14.623,2761.88,-6.486,-8.647,188.051,0.095,28.61,-80.599,NaN,NaN,NaN,49.15,916.4
14.738,2759.245,-7.481,-8.345,189.219,0.095,28.61,-80.599,NaN,NaN,NaN,49.159,916.5
14.857,2756.129,-8.475,-8.012,190.387,0.098,28.61,-80.599,NaN,NaN,NaN,49.172,916.6
14.981,2752.48,-9.468,-7.654,191.555,0.098,28.61,-80.599,NaN,NaN,NaN,49.185,916.7
15.111,2748.245,-10.46,-7.239,192.723,0.098,28.61,-80.599,NaN,NaN,NaN,49.199,916.9
15.247,2743.33,-11.45,-6.769,193.894,0.102,28.61,-80.599,NaN,NaN,NaN,49.217,917.1
15.393,2737.615,-12.437,-6.273,195.072,0.102,28.61,-80.599,NaN,NaN,NaN,49.237,917.2
15.55,2730.961,-13.421,-5.748,196.253,0.105,28.61,-80.599,NaN,NaN,NaN,49.26,917.5
15.721,2723.163,-14.403,-5.155,197.438,0.105,28.61,-80.599,NaN,NaN,NaN,49.289,917.7
15.91,2713.921,-15.378,-4.528,198.622,0.108,28.61,-80.599,NaN,NaN,NaN,49.321,918.1
16.123,2702.831,-16.343,-3.892,199.783,0.108,28.61,-80.599,NaN,NaN,NaN,49.361,918.4
16.37,2689.236,-17.302,-3.209,200.909,0.112,28.61,-80.599,NaN,NaN,NaN,49.41,918.9
16.664,2672.051,-18.248,-2.484,201.959,0.112,28.61,-80.599,NaN,NaN,NaN,49.471,919.5
17.032,2649.505,-19.16,-1.76,202.828,0.115,28.61,-80.599,NaN,NaN,NaN,49.552,920.2
17.526,2617.74,-20.03,-1.018,203.261,0.118,28.61,-80.599,NaN,NaN,NaN,49.665,921.3
18.026,2584.465,-20.539,-0.586,202.887,0.118,28.61,-80.599,NaN,NaN,NaN,49.784,922.5
18.526,2550.531,-20.832,-0.324,201.804,0.121,28.61,-80.599,NaN,NaN,NaN,49.905,923.6
19.026,2516.227,-20.994,-0.18,200.174,0.121,28.61,-80.599,NaN,NaN,NaN,50.027,924.8
19.526,2481.716,-21.084,-0.077,198.169,0.125,28.61,-80.599,NaN,NaN,NaN,50.149,926
20.026,2447.096,-21.123,-0.044,195.817,0.125,28.61,-80.599,NaN,NaN,NaN,50.274,927.1
20.526,2412.428,-21.145,-0.016,193.143,0.125,28.61,-80.599,NaN,NaN,NaN,50.396,928.3
21.026,2377.736,-21.153,0.001,190.318,0.125,28.61,-80.599,NaN,NaN,NaN,50.52,929.5
21.526,2343.038,-21.152,0.01,187.454,0.125,28.61,-80.599,NaN,NaN,NaN,50.644,930.7
22.026,2308.343,-21.147,0.017,184.587,0.125,28.61,-80.599,NaN,NaN,NaN,50.769,931.9
22.526,2273.661,-21.138,0.02,181.631,0.125,28.61,-80.599,NaN,NaN,NaN,50.891,933
23.026,2238.993,-21.129,0.019,178.527,0.125,28.61,-80.599,NaN,NaN,NaN,51.015,934.2
23.526,2204.341,-21.119,0.021,175.312,0.125,28.61,-80.599,NaN,NaN,NaN,51.139,935.4
24.026,2169.705,-21.109,0.021,172.011,0.125,28.61,-80.599,NaN,NaN,NaN,51.262,936.6
24.526,2135.085,-21.098,0.02,168.711,0.125,28.61,-80.599,NaN,NaN,NaN,51.386,937.8
25.026,2100.486,-21.088,0.023,165.449,0.121,28.61,-80.599,NaN,NaN,NaN,51.51,938.9
25.526,2065.899,-21.077,0.02,162.254,0.121,28.61,-80.599,NaN,NaN,NaN,51.633,940.1
26.026,2031.332,-21.067,0.021,159.14,0.121,28.61,-80.6,NaN,NaN,NaN,51.757,941.3
26.526,1996.785,-21.056,0.021,156.06,0.121,28.61,-80.6,NaN,NaN,NaN,51.879,942.5
27.026,1962.251,-21.046,0.021,152.979,0.121,28.61,-80.6,NaN,NaN,NaN,52.002,943.6
27.526,1927.736,-21.035,0.021,149.862,0.121,28.61,-80.6,NaN,NaN,NaN,52.126,944.8
28.026,1893.238,-21.025,0.021,146.772,0.121,28.61,-80.6,NaN,NaN,NaN,52.248,946
28.526,1858.757,-21.014,0.022,143.675,0.118,28.61,-80.6,NaN,NaN,NaN,52.371,947.2
29.026,1824.291,-21.003,0.02,140.492,0.118,28.61,-80.6,NaN,NaN,NaN,52.495,948.3
29.526,1789.846,-20.993,0.021,137.241,0.118,28.61,-80.6,NaN,NaN,NaN,52.617,949.5
30.026,1755.417,-20.983,0.021,133.973,0.118,28.61,-80.6,NaN,NaN,NaN,52.74,950.7
30.526,1721.004,-20.973,0.021,130.719,0.118,28.61,-80.6,NaN,NaN,NaN,52.862,951.9
31.026,1686.611,-20.962,0.021,127.444,0.118,28.61,-80.6,NaN,NaN,NaN,52.984,953
31.526,1652.231,-20.952,0.022,124.131,0.118,28.61,-80.6,NaN,NaN,NaN,53.109,954.2
32.026,1617.871,-20.941,0.021,120.741,0.115,28.61,-80.6,NaN,NaN,NaN,53.231,955.4
32.526,1583.527,-20.93,0.021,117.251,0.115,28.61,-80.6,NaN,NaN,NaN,53.353,956.6
33.026,1549.203,-20.92,0.021,113.753,0.115,28.61,-80.6,NaN,NaN,NaN,53.476,957.9
33.526,1514.892,-20.909,0.022,110.322,0.115,28.61,-80.6,NaN,NaN,NaN,53.598,959.1
34.026,1480.604,-20.898,0.022,106.955,0.115,28.61,-80.6,NaN,NaN,NaN,53.721,960.3
34.526,1446.329,-20.887,0.023,103.671,0.115,28.61,-80.6,NaN,NaN,NaN,53.843,961.5
35.026,1412.073,-20.876,0.021,100.495,0.115,28.61,-80.6,NaN,NaN,NaN,53.964,962.8
35.526,1377.838,-20.866,0.022,97.408,0.112,28.61,-80.6,NaN,NaN,NaN,54.086,964
36.026,1343.619,-20.855,0.022,94.288,0.112,28.61,-80.6,NaN,NaN,NaN,54.208,965.2
36.526,1309.416,-20.844,0.024,91.056,0.112,28.61,-80.6,NaN,NaN,NaN,54.331,966.4
37.026,1275.233,-20.832,0.02,87.664,0.112,28.61,-80.6,NaN,NaN,NaN,54.453,967.7
37.526,1241.07,-20.822,0.021,84.14,0.112,28.61,-80.6,NaN,NaN,NaN,54.574,968.9
38.026,1206.919,-20.812,0.021,80.554,0.112,28.61,-80.6,NaN,NaN,NaN,54.696,970.1
38.526,1172.789,-20.801,0.021,76.952,0.112,28.61,-80.6,NaN,NaN,NaN,54.817,971.3
39.026,1138.675,-20.791,0.022,73.389,0.108,28.61,-80.6,NaN,NaN,NaN,54.939,972.5
39.526,1104.577,-20.78,0.02,69.898,0.108,28.61,-80.6,NaN,NaN,NaN,55.062,973.8
40.026,1070.495,-20.77,0.021,66.463,0.108,28.61,-80.6,NaN,NaN,NaN,55.182,975
40.526,1036.434,-20.76,0.021,63.028,0.108,28.61,-80.6,NaN,NaN,NaN,55.305,976.2
41.026,1002.388,-20.749,0.021,59.619,0.108,28.61,-80.6,NaN,NaN,NaN,55.425,977.4
41.526,968.36,-20.739,0.024,56.26,0.108,28.61,-80.6,NaN,NaN,NaN,55.546,978.6
41.527,968.291,-20.739,231.151,56.253,0.108,28.61,-80.6,NaN,NaN,NaN,55.548,978.6
41.531,968.005,-19.739,208.484,56.227,0.108,28.61,-80.6,NaN,NaN,NaN,55.548,978.6
41.536,967.7,-18.739,186.936,56.194,0.108,28.61,-80.6,NaN,NaN,NaN,55.549,978.7
41.541,967.382,-17.74,166.507,56.158,0.108,28.61,-80.6,NaN,NaN,NaN,55.549,978.7
41.547,967.041,-16.74,147.198,56.122,0.108,28.61,-80.6,NaN,NaN,NaN,55.551,978.7
41.554,966.68,-15.74,129.013,56.079,0.108,28.61,-80.6,NaN,NaN,NaN,55.553,978.7
41.562,966.293,-14.741,111.951,56.03,0.108,28.61,-80.6,NaN,NaN,NaN,55.555,978.7
41.571,965.876,-13.741,96.01,55.978,0.108,28.61,-80.6,NaN,NaN,NaN,55.555,978.7
41.581,965.423,-12.742,81.191,55.915,0.108,28.61,-80.6,NaN,NaN,NaN,55.557,978.7
41.593,964.928,-11.742,67.493,55.843,0.108,28.61,-80.6,NaN,NaN,NaN,55.558,978.8
41.608,964.383,-10.743,54.908,55.758,0.108,28.61,-80.6,NaN,NaN,NaN,55.56,978.8
41.626,963.77,-9.745,43.434,55.656,0.108,28.61,-80.6,NaN,NaN,NaN,55.564,978.8
41.649,963.074,-8.746,33.078,55.531,0.108,28.61,-80.6,NaN,NaN,NaN,55.566,978.8
41.68,962.257,-7.747,23.828,55.374,0.108,28.61,-80.6,NaN,NaN,NaN,55.569,978.9
41.722,961.26,-6.747,15.708,55.157,0.108,28.61,-80.6,NaN,NaN,NaN,55.573,978.9
41.785,959.954,-5.747,8.715,54.833,0.108,28.61,-80.6,NaN,NaN,NaN,55.576,978.9
41.9,957.982,-4.748,2.839,54.239,0.108,28.61,-80.6,NaN,NaN,NaN,55.584,979
42.088,955.217,-4.215,0.17,53.251,0.108,28.61,-80.6,NaN,NaN,NaN,55.594,979.1
42.3,952.303,-4.178,0.001,52.11,0.108,28.61,-80.6,NaN,NaN,NaN,55.603,979.2
42.513,949.373,-4.178,0.033,50.892,0.108,28.61,-80.6,NaN,NaN,NaN,55.614,979.3
42.727,946.45,-4.171,-0.038,49.57,0.108,28.61,-80.6,NaN,NaN,NaN,55.625,979.4
42.941,943.52,-4.179,-0.001,48.202,0.105,28.61,-80.6,NaN,NaN,NaN,55.636,979.5
43.154,940.591,-4.179,0.007,46.864,0.105,28.61,-80.6,NaN,NaN,NaN,55.645,979.6
43.368,937.664,-4.178,0.026,45.571,0.105,28.61,-80.6,NaN,NaN,NaN,55.656,979.7
43.581,934.741,-4.172,-0.029,44.245,0.105,28.61,-80.6,NaN,NaN,NaN,55.666,979.8
43.795,931.811,-4.179,-0.002,42.841,0.105,28.61,-80.6,NaN,NaN,NaN,55.677,979.9
44.008,928.888,-4.179,0.001,41.424,0.105,28.61,-80.6,NaN,NaN,NaN,55.688,980
44.222,925.961,-4.179,0.001,40.01,0.105,28.61,-80.6,NaN,NaN,NaN,55.697,980.1
44.435,923.035,-4.179,0.005,38.606,0.105,28.61,-80.6,NaN,NaN,NaN,55.708,980.3
44.648,920.112,-4.177,0.007,37.231,0.105,28.61,-80.6,NaN,NaN,NaN,55.719,980.4
44.862,917.185,-4.176,-0.001,35.843,0.105,28.61,-80.6,NaN,NaN,NaN,55.729,980.5
45.075,914.262,-4.176,0.011,34.452,0.105,28.61,-80.6,NaN,NaN,NaN,55.74,980.6
45.289,911.339,-4.174,-0.014,33.14,0.105,28.61,-80.6,NaN,NaN,NaN,55.749,980.7
45.502,908.412,-4.177,0,31.893,0.105,28.61,-80.6,NaN,NaN,NaN,55.76,980.8
45.716,905.489,-4.177,-0.002,30.689,0.105,28.61,-80.6,NaN,NaN,NaN,55.771,980.9
45.929,902.566,-4.177,0.003,29.495,0.105,28.61,-80.6,NaN,NaN,NaN,55.782,981
46.142,899.642,-4.177,-0,28.304,0.105,28.61,-80.6,NaN,NaN,NaN,55.792,981.1
46.642,892.789,-4.177,0.018,25.646,0.105,28.61,-80.6,NaN,NaN,NaN,55.816,981.3
46.856,889.869,-4.173,-0.014,24.505,0.105,28.61,-80.6,NaN,NaN,NaN,55.827,981.4
47.069,886.946,-4.176,0.026,23.301,0.105,28.61,-80.6,NaN,NaN,NaN,55.837,981.5
47.282,884.026,-4.17,-0.023,22.021,0.105,28.61,-80.6,NaN,NaN,NaN,55.848,981.6
47.496,881.102,-4.175,0.009,20.659,0.105,28.61,-80.6,NaN,NaN,NaN,55.857,981.8
47.709,878.179,-4.173,0.007,19.321,0.105,28.61,-80.6,NaN,NaN,NaN,55.868,981.9
47.923,875.259,-4.172,-0.017,17.969,0.105,28.61,-80.6,NaN,NaN,NaN,55.879,982
48.136,872.336,-4.175,-0,16.562,0.105,28.61,-80.6,NaN,NaN,NaN,55.89,982.1
48.349,869.416,-4.175,0.001,15.151,0.105,28.61,-80.6,NaN,NaN,NaN,55.9,982.2
48.563,866.496,-4.175,0.005,13.734,0.105,28.61,-80.6,NaN,NaN,NaN,55.909,982.3
48.776,863.576,-4.174,0.003,12.333,0.105,28.61,-80.6,NaN,NaN,NaN,55.92,982.4
48.989,860.656,-4.173,-0.002,10.928,0.105,28.61,-80.6,NaN,NaN,NaN,55.931,982.5
49.202,857.736,-4.174,-0.002,9.514,0.105,28.61,-80.6,NaN,NaN,NaN,55.942,982.6
49.415,854.816,-4.174,0.007,8.11,0.105,28.61,-80.6,NaN,NaN,NaN,55.951,982.7
49.629,851.896,-4.173,0.015,6.722,0.105,28.61,-80.6,NaN,NaN,NaN,55.962,982.8
49.842,848.98,-4.17,-0.014,5.41,0.105,28.61,-80.6,NaN,NaN,NaN,55.972,982.9
50.055,846.06,-4.173,-0.005,4.17,0.105,28.61,-80.6,NaN,NaN,NaN,55.983,983
50.268,843.14,-4.174,0.002,2.953,0.105,28.61,-80.6,NaN,NaN,NaN,55.994,983.1
50.481,840.223,-4.173,0.001,1.726,0.105,28.61,-80.6,NaN,NaN,NaN,56.003,983.2
50.695,837.303,-4.173,0,0.466,0.105,28.61,-80.6,NaN,NaN,NaN,56.014,983.3
51.195,830.459,-4.173,0.023,-2.589,0.105,28.61,-80.6,NaN,NaN,NaN,56.039,983.6
51.408,827.543,-4.168,-0.02,-3.868,0.105,28.61,-80.6,NaN,NaN,NaN,56.048,983.7
51.621,824.626,-4.172,0.009,-5.089,0.105,28.61,-80.6,NaN,NaN,NaN,56.059,983.8
51.834,821.709,-4.17,-0.003,-6.325,0.105,28.61,-80.6,NaN,NaN,NaN,56.07,983.9
52.047,818.793,-4.171,-0,-7.569,0.105,28.61,-80.6,NaN,NaN,NaN,56.08,984
52.26,815.876,-4.171,-0.004,-8.766,0.105,28.61,-80.6,NaN,NaN,NaN,56.091,984.1
52.473,812.959,-4.172,0.046,-9.938,0.105,28.61,-80.6,NaN,NaN,NaN,56.1,984.2
52.686,810.046,-4.162,-0.015,-11.175,0.105,28.61,-80.6,NaN,NaN,NaN,56.111,984.3
52.9,807.129,-4.165,-0.017,-12.543,0.105,28.61,-80.6,NaN,NaN,NaN,56.122,984.4
53.113,804.213,-4.169,0.001,-14.003,0.105,28.61,-80.6,NaN,NaN,NaN,56.133,984.5
53.326,801.299,-4.169,-0.01,-15.459,0.105,28.61,-80.6,NaN,NaN,NaN,56.142,984.6
53.54,798.383,-4.171,0.002,-16.873,0.105,28.61,-80.6,NaN,NaN,NaN,56.152,984.7
53.753,795.469,-4.171,-0,-18.291,0.105,28.61,-80.6,NaN,NaN,NaN,56.163,984.8
53.965,792.556,-4.171,0.004,-19.721,0.105,28.61,-80.6,NaN,NaN,NaN,56.174,984.9
54.178,789.639,-4.17,-0.002,-21.138,0.105,28.61,-80.6,NaN,NaN,NaN,56.185,985
54.391,786.726,-4.17,0.011,-22.53,0.105,28.61,-80.6,NaN,NaN,NaN,56.194,985.1
54.604,783.816,-4.168,0.006,-23.881,0.105,28.61,-80.6,NaN,NaN,NaN,56.205,985.2
54.817,780.902,-4.167,-0.007,-25.161,0.105,28.61,-80.6,NaN,NaN,NaN,56.215,985.3
55.031,777.989,-4.168,-0.003,-26.368,0.105,28.61,-80.6,NaN,NaN,NaN,56.226,985.4
55.244,775.075,-4.169,0.006,-27.566,0.105,28.61,-80.6,NaN,NaN,NaN,56.235,985.5
55.456,772.162,-4.168,0.003,-28.812,0.105,28.61,-80.6,NaN,NaN,NaN,56.246,985.6
55.669,769.252,-4.167,-0.007,-30.128,0.105,28.61,-80.6,NaN,NaN,NaN,56.257,985.8
55.882,766.339,-4.168,-0.002,-31.496,0.105,28.61,-80.6,NaN,NaN,NaN,56.268,985.9
56.095,763.425,-4.169,0.008,-32.881,0.105,28.61,-80.6,NaN,NaN,NaN,56.278,986
56.308,760.515,-4.167,-0.004,-34.288,0.105,28.61,-80.6,NaN,NaN,NaN,56.287,986.1
56.521,757.605,-4.168,-0.002,-35.745,0.105,28.61,-80.6,NaN,NaN,NaN,56.298,986.2
56.734,754.692,-4.168,0.013,-37.224,0.105,28.61,-80.6,NaN,NaN,NaN,56.309,986.3
56.947,751.781,-4.165,0.026,-38.675,0.105,28.61,-80.6,NaN,NaN,NaN,56.32,986.4
57.16,748.875,-4.16,-0.021,-40.02,0.105,28.61,-80.6,NaN,NaN,NaN,56.329,986.5
57.373,745.961,-4.164,-0.015,-41.263,0.105,28.61,-80.6,NaN,NaN,NaN,56.34,986.6
57.586,743.051,-4.168,0.001,-42.47,0.105,28.61,-80.6,NaN,NaN,NaN,56.35,986.7
57.799,740.141,-4.167,0.01,-43.671,0.105,28.61,-80.6,NaN,NaN,NaN,56.361,986.8
58.012,737.231,-4.165,0.016,-44.902,0.105,28.61,-80.6,NaN,NaN,NaN,56.37,986.9
58.225,734.324,-4.162,-0.024,-46.214,0.105,28.61,-80.6,NaN,NaN,NaN,56.381,987
58.438,731.414,-4.167,0.006,-47.579,0.105,28.61,-80.6,NaN,NaN,NaN,56.392,987.1
58.65,728.504,-4.166,0,-48.921,0.105,28.61,-80.6,NaN,NaN,NaN,56.403,987.2
59.15,721.673,-4.166,0.001,-51.896,0.105,28.61,-80.6,NaN,NaN,NaN,56.426,987.5
59.363,718.763,-4.166,-0.002,-53.094,0.105,28.61,-80.6,NaN,NaN,NaN,56.437,987.6
59.576,715.856,-4.166,0.019,-54.275,0.105,28.61,-80.6,NaN,NaN,NaN,56.448,987.7
59.789,712.949,-4.162,-0.011,-55.499,0.105,28.61,-80.6,NaN,NaN,NaN,56.458,987.8
60.002,710.043,-4.164,-0.005,-56.798,0.105,28.61,-80.6,NaN,NaN,NaN,56.467,987.9
60.214,707.136,-4.165,-0.001,-58.136,0.105,28.61,-80.6,NaN,NaN,NaN,56.478,988
60.427,704.229,-4.165,0.005,-59.491,0.105,28.61,-80.6,NaN,NaN,NaN,56.489,988.1
60.64,701.322,-4.164,-0.001,-60.873,0.105,28.61,-80.6,NaN,NaN,NaN,56.5,988.2
60.853,698.415,-4.164,-0.002,-62.29,0.102,28.61,-80.6,NaN,NaN,NaN,56.509,988.3
61.065,695.509,-4.165,0.013,-63.727,0.102,28.61,-80.6,NaN,NaN,NaN,56.52,988.4
61.278,692.605,-4.162,-0.011,-65.131,0.102,28.61,-80.6,NaN,NaN,NaN,56.53,988.5
61.491,689.698,-4.164,0.001,-66.49,0.102,28.61,-80.6,NaN,NaN,NaN,56.541,988.6
61.703,686.791,-4.164,0.003,-67.848,0.102,28.61,-80.6,NaN,NaN,NaN,56.55,988.7
61.916,683.888,-4.163,-0.002,-69.199,0.102,28.61,-80.6,NaN,NaN,NaN,56.561,988.8
62.129,680.984,-4.164,0.008,-70.525,0.102,28.61,-80.6,NaN,NaN,NaN,56.572,988.9
62.341,678.081,-4.162,0.011,-71.877,0.102,28.61,-80.6,NaN,NaN,NaN,56.583,989
62.554,675.177,-4.16,-0.016,-73.294,0.102,28.61,-80.6,NaN,NaN,NaN,56.592,989.1
62.767,672.27,-4.163,0.009,-74.754,0.102,28.61,-80.6,NaN,NaN,NaN,56.602,989.2
62.979,669.367,-4.161,0.033,-76.178,0.102,28.61,-80.6,NaN,NaN,NaN,56.613,989.3
63.192,666.467,-4.154,-0.034,-77.507,0.102,28.61,-80.6,NaN,NaN,NaN,56.624,989.4
63.405,663.56,-4.162,0.002,-78.743,0.102,28.61,-80.6,NaN,NaN,NaN,56.633,989.5
63.618,660.656,-4.161,-0.006,-79.928,0.102,28.61,-80.6,NaN,NaN,NaN,56.644,989.6
63.83,657.756,-4.162,0.007,-81.086,0.102,28.61,-80.6,NaN,NaN,NaN,56.655,989.7
64.043,654.852,-4.161,0.029,-82.274,0.102,28.61,-80.6,NaN,NaN,NaN,56.665,989.8
64.255,651.952,-4.155,-0.031,-83.547,0.102,28.61,-80.6,NaN,NaN,NaN,56.674,989.9
64.468,649.049,-4.162,0.004,-84.895,0.102,28.61,-80.6,NaN,NaN,NaN,56.685,990
64.681,646.145,-4.161,-0.004,-86.234,0.102,28.61,-80.6,NaN,NaN,NaN,56.696,990.2
64.893,643.245,-4.162,0.001,-87.549,0.102,28.61,-80.6,NaN,NaN,NaN,56.707,990.3
65.106,640.344,-4.161,0.003,-88.871,0.102,28.61,-80.6,NaN,NaN,NaN,56.716,990.4
65.318,637.441,-4.161,0,-90.21,0.102,28.61,-80.6,NaN,NaN,NaN,56.727,990.5
65.531,634.541,-4.161,0.003,-91.575,0.102,28.61,-80.6,NaN,NaN,NaN,56.737,990.6
65.743,631.64,-4.16,0.002,-92.933,0.102,28.61,-80.6,NaN,NaN,NaN,56.748,990.7
65.956,628.74,-4.16,-0.003,-94.252,0.102,28.61,-80.6,NaN,NaN,NaN,56.757,990.8
66.168,625.84,-4.16,0.002,-95.535,0.102,28.61,-80.6,NaN,NaN,NaN,56.768,990.9
66.381,622.94,-4.16,0.002,-96.824,0.102,28.61,-80.6,NaN,NaN,NaN,56.779,991
66.593,620.043,-4.16,-0.001,-98.107,0.102,28.61,-80.6,NaN,NaN,NaN,56.79,991.1
66.806,617.142,-4.16,0.015,-99.383,0.102,28.61,-80.6,NaN,NaN,NaN,56.799,991.2
67.018,614.245,-4.157,-0.009,-100.705,0.102,28.61,-80.6,NaN,NaN,NaN,56.809,991.3
67.231,611.345,-4.159,-0.004,-102.09,0.102,28.61,-80.6,NaN,NaN,NaN,56.82,991.4
67.443,608.445,-4.159,0.002,-103.494,0.102,28.61,-80.6,NaN,NaN,NaN,56.831,991.5
67.656,605.548,-4.159,0.002,-104.902,0.102,28.61,-80.6,NaN,NaN,NaN,56.84,991.6
67.868,602.651,-4.158,0.002,-106.345,0.102,28.61,-80.6,NaN,NaN,NaN,56.851,991.7
68.08,599.751,-4.158,-0.003,-107.828,0.102,28.61,-80.6,NaN,NaN,NaN,56.862,991.8
68.293,596.854,-4.159,0.006,-109.341,0.102,28.61,-80.6,NaN,NaN,NaN,56.872,991.9
68.505,593.957,-4.157,-0.004,-110.837,0.102,28.61,-80.6,NaN,NaN,NaN,56.881,992
68.717,591.06,-4.158,0.001,-112.316,0.102,28.61,-80.6,NaN,NaN,NaN,56.892,992.1
68.93,588.163,-4.158,0.001,-113.812,0.102,28.61,-80.6,NaN,NaN,NaN,56.903,992.2
69.142,585.266,-4.158,0.028,-115.325,0.102,28.61,-80.6,NaN,NaN,NaN,56.912,992.3
69.354,582.372,-4.152,-0.023,-116.788,0.102,28.61,-80.6,NaN,NaN,NaN,56.923,992.4
69.567,579.475,-4.157,0.004,-118.225,0.102,28.61,-80.6,NaN,NaN,NaN,56.934,992.5
69.779,576.578,-4.156,0.007,-119.705,0.102,28.61,-80.6,NaN,NaN,NaN,56.944,992.6
69.992,573.684,-4.155,-0.012,-121.247,0.102,28.61,-80.6,NaN,NaN,NaN,56.953,992.7
70.204,570.787,-4.157,0.001,-122.825,0.102,28.61,-80.6,NaN,NaN,NaN,56.964,992.8
70.416,567.89,-4.157,0.001,-124.383,0.102,28.61,-80.6,NaN,NaN,NaN,56.975,992.9
70.629,564.997,-4.157,0.002,-125.942,0.102,28.61,-80.6,NaN,NaN,NaN,56.986,993.1
70.841,562.103,-4.156,0.036,-127.526,0.102,28.61,-80.6,NaN,NaN,NaN,56.995,993.2
71.053,559.209,-4.149,-0.021,-129.058,0.102,28.61,-80.6,NaN,NaN,NaN,57.006,993.3
71.266,556.316,-4.153,-0.002,-130.489,0.102,28.61,-80.6,NaN,NaN,NaN,57.016,993.4
71.478,553.422,-4.153,-0.01,-131.916,0.102,28.61,-80.6,NaN,NaN,NaN,57.027,993.5
71.691,550.525,-4.156,0.017,-133.392,0.102,28.61,-80.6,NaN,NaN,NaN,57.036,993.6
71.903,547.635,-4.152,-0.002,-134.839,0.102,28.61,-80.6,NaN,NaN,NaN,57.047,993.7
72.115,544.741,-4.152,0.002,-136.283,0.102,28.61,-80.6,NaN,NaN,NaN,57.058,993.8
72.328,541.847,-4.152,-0.013,-137.808,0.102,28.61,-80.6,NaN,NaN,NaN,57.067,993.9
72.54,538.953,-4.155,0.013,-139.36,0.102,28.61,-80.6,NaN,NaN,NaN,57.078,994
72.752,536.063,-4.152,0.017,-140.86,0.102,28.61,-80.6,NaN,NaN,NaN,57.088,994.1
72.965,533.173,-4.149,-0.017,-142.264,0.102,28.61,-80.6,NaN,NaN,NaN,57.099,994.2
73.177,530.279,-4.152,-0.007,-143.579,0.102,28.61,-80.6,NaN,NaN,NaN,57.108,994.3
73.389,527.385,-4.154,-0,-144.836,0.102,28.61,-80.6,NaN,NaN,NaN,57.119,994.4
73.601,524.495,-4.154,0.012,-146.089,0.102,28.61,-80.6,NaN,NaN,NaN,57.13,994.5
73.814,521.604,-4.151,-0.005,-147.398,0.102,28.61,-80.6,NaN,NaN,NaN,57.141,994.6
74.026,518.714,-4.152,-0.004,-148.776,0.102,28.61,-80.6,NaN,NaN,NaN,57.15,994.7
74.238,515.82,-4.153,-0.002,-150.2,0.102,28.61,-80.6,NaN,NaN,NaN,57.16,994.8
74.45,512.93,-4.154,0.001,-151.647,0.102,28.61,-80.6,NaN,NaN,NaN,57.171,994.9
74.662,510.039,-4.154,0.004,-153.097,0.102,28.61,-80.6,NaN,NaN,NaN,57.182,995
74.874,507.152,-4.153,0.023,-154.524,0.102,28.61,-80.6,NaN,NaN,NaN,57.191,995.1
75.086,504.262,-4.148,-0.022,-155.984,0.102,28.61,-80.6,NaN,NaN,NaN,57.202,995.2
75.299,501.371,-4.152,-0.002,-157.516,0.102,28.61,-80.6,NaN,NaN,NaN,57.213,995.3
75.511,498.481,-4.153,0.001,-159.072,0.102,28.61,-80.6,NaN,NaN,NaN,57.222,995.4
75.723,495.594,-4.153,0.001,-160.627,0.102,28.61,-80.601,NaN,NaN,NaN,57.232,995.5
75.935,492.703,-4.152,0.016,-162.159,0.102,28.61,-80.601,NaN,NaN,NaN,57.243,995.6
76.147,489.816,-4.149,-0.016,-163.638,0.102,28.61,-80.601,NaN,NaN,NaN,57.254,995.7
76.359,486.926,-4.152,0.001,-165.075,0.102,28.61,-80.601,NaN,NaN,NaN,57.263,995.8
76.571,484.039,-4.152,0.001,-166.496,0.102,28.61,-80.601,NaN,NaN,NaN,57.274,995.9
76.783,481.152,-4.152,-0.001,-167.917,0.102,28.61,-80.601,NaN,NaN,NaN,57.285,996
76.995,478.264,-4.152,0.007,-169.354,0.102,28.61,-80.601,NaN,NaN,NaN,57.294,996.2
77.207,475.377,-4.15,0.076,-170.761,0.102,28.61,-80.601,NaN,NaN,NaN,57.304,996.3
77.419,472.493,-4.134,-0.072,-172.051,0.102,28.61,-80.601,NaN,NaN,NaN,57.315,996.4
77.632,469.603,-4.15,-0.005,-173.222,0.098,28.61,-80.601,NaN,NaN,NaN,57.326,996.5
77.844,466.716,-4.151,-0,-174.377,0.098,28.61,-80.601,NaN,NaN,NaN,57.335,996.6
78.056,463.829,-4.151,-0,-175.554,0.098,28.61,-80.601,NaN,NaN,NaN,57.346,996.7
78.556,457.021,-4.151,0.021,-178.343,0.098,28.61,-80.601,NaN,NaN,NaN,57.371,996.9
78.768,454.137,-4.146,-0.012,-179.56,0.098,28.61,-80.601,NaN,NaN,NaN,57.38,997
78.98,451.25,-4.149,-0.004,-180.85,0.098,28.61,-80.601,NaN,NaN,NaN,57.391,997.1
79.192,448.366,-4.15,-0.001,-182.149,0.098,28.61,-80.601,NaN,NaN,NaN,57.402,997.2
79.404,445.479,-4.15,0.003,-183.442,0.098,28.61,-80.601,NaN,NaN,NaN,57.411,997.3
79.616,442.595,-4.149,-0,-184.721,0.098,28.61,-80.601,NaN,NaN,NaN,57.421,997.4
79.828,439.711,-4.149,0.009,-185.997,0.098,28.61,-80.601,NaN,NaN,NaN,57.432,997.5
80.04,436.827,-4.147,-0.008,-187.313,0.098,28.61,-80.601,NaN,NaN,NaN,57.443,997.6
80.252,433.944,-4.149,0.002,-188.658,0.098,28.61,-80.601,NaN,NaN,NaN,57.452,997.7
80.464,431.06,-4.149,0.001,-190.016,0.098,28.61,-80.601,NaN,NaN,NaN,57.463,997.8
80.675,428.176,-4.148,0.027,-191.375,0.098,28.61,-80.601,NaN,NaN,NaN,57.474,997.9
80.887,425.295,-4.143,-0.002,-192.772,0.098,28.61,-80.601,NaN,NaN,NaN,57.483,998
81.099,422.411,-4.143,-0.003,-194.278,0.098,28.61,-80.601,NaN,NaN,NaN,57.493,998.1
81.311,419.528,-4.144,-0.02,-195.886,0.098,28.61,-80.601,NaN,NaN,NaN,57.504,998.3
81.523,416.644,-4.148,0.022,-197.546,0.098,28.61,-80.601,NaN,NaN,NaN,57.515,998.4
81.735,413.763,-4.143,-0.021,-199.163,0.098,28.61,-80.601,NaN,NaN,NaN,57.524,998.5
81.947,410.879,-4.147,0.008,-200.728,0.098,28.61,-80.601,NaN,NaN,NaN,57.535,998.6
82.159,407.999,-4.146,-0.006,-202.254,0.098,28.61,-80.601,NaN,NaN,NaN,57.546,998.7
82.371,405.118,-4.147,0.008,-203.747,0.098,28.61,-80.601,NaN,NaN,NaN,57.555,998.8
82.583,402.238,-4.146,-0.006,-205.262,0.098,28.61,-80.601,NaN,NaN,NaN,57.565,998.9
82.795,399.354,-4.147,0.017,-206.814,0.098,28.61,-80.601,NaN,NaN,NaN,57.576,999
83.006,396.476,-4.143,0.04,-208.337,0.098,28.61,-80.601,NaN,NaN,NaN,57.587,999.1
83.218,393.599,-4.135,-0.055,-209.738,0.098,28.61,-80.601,NaN,NaN,NaN,57.596,999.2
83.431,390.712,-4.146,0.005,-211.056,0.098,28.61,-80.601,NaN,NaN,NaN,57.607,999.3
83.642,387.835,-4.145,0.015,-212.385,0.098,28.61,-80.601,NaN,NaN,NaN,57.618,999.4
83.854,384.954,-4.142,-0.015,-213.783,0.098,28.61,-80.601,NaN,NaN,NaN,57.627,999.5
84.066,382.073,-4.145,-0.002,-215.243,0.098,28.61,-80.601,NaN,NaN,NaN,57.637,999.6
84.278,379.193,-4.146,0.001,-216.709,0.098,28.61,-80.601,NaN,NaN,NaN,57.648,999.7
84.489,376.316,-4.145,0.002,-218.163,0.098,28.61,-80.601,NaN,NaN,NaN,57.657,999.8
84.701,373.435,-4.145,-0.001,-219.623,0.098,28.61,-80.601,NaN,NaN,NaN,57.668,999.9
84.913,370.558,-4.145,0.002,-221.093,0.098,28.61,-80.601,NaN,NaN,NaN,57.679,1000
85.124,367.68,-4.145,-0,-222.549,0.098,28.61,-80.601,NaN,NaN,NaN,57.69,1000
85.624,360.879,-4.145,0.006,-226.004,0.098,28.61,-80.601,NaN,NaN,NaN,57.713,1000
85.836,358.002,-4.143,-0.003,-227.461,0.098,28.61,-80.601,NaN,NaN,NaN,57.724,1000
86.048,355.125,-4.144,0.004,-228.904,0.098,28.61,-80.601,NaN,NaN,NaN,57.733,1001
86.259,352.247,-4.143,-0.001,-230.384,0.098,28.61,-80.601,NaN,NaN,NaN,57.744,1001
86.471,349.373,-4.143,-0.001,-231.867,0.098,28.61,-80.601,NaN,NaN,NaN,57.754,1001
86.682,346.496,-4.144,0.017,-233.33,0.098,28.61,-80.601,NaN,NaN,NaN,57.765,1001
86.894,343.619,-4.14,-0.004,-234.747,0.098,28.61,-80.601,NaN,NaN,NaN,57.774,1001
87.106,340.745,-4.141,0.007,-236.093,0.098,28.61,-80.601,NaN,NaN,NaN,57.785,1001
87.318,337.867,-4.14,-0.015,-237.356,0.098,28.61,-80.601,NaN,NaN,NaN,57.796,1001
87.529,334.99,-4.143,0.003,-238.566,0.098,28.61,-80.601,NaN,NaN,NaN,57.805,1001
87.741,332.116,-4.142,0.024,-239.78,0.098,28.61,-80.601,NaN,NaN,NaN,57.816,1001
87.952,329.242,-4.137,-0.025,-241.066,0.098,28.61,-80.601,NaN,NaN,NaN,57.826,1001
88.164,326.365,-4.143,0.01,-242.402,0.098,28.61,-80.601,NaN,NaN,NaN,57.835,1002
88.376,323.491,-4.14,-0.009,-243.763,0.098,28.61,-80.601,NaN,NaN,NaN,57.846,1002
88.587,320.617,-4.142,0.002,-245.157,0.098,28.61,-80.601,NaN,NaN,NaN,57.857,1002
88.799,317.743,-4.142,-0,-246.558,0.098,28.61,-80.601,NaN,NaN,NaN,57.866,1002
89.01,314.869,-4.142,0.001,-247.972,0.098,28.61,-80.601,NaN,NaN,NaN,57.877,1002
89.222,311.995,-4.142,0.014,-249.39,0.098,28.61,-80.601,NaN,NaN,NaN,57.888,1002
89.433,309.121,-4.139,0.006,-250.778,0.098,28.61,-80.601,NaN,NaN,NaN,57.898,1002
89.645,306.25,-4.137,-0.008,-252.083,0.098,28.61,-80.601,NaN,NaN,NaN,57.907,1002
89.857,303.376,-4.139,-0.008,-253.314,0.098,28.61,-80.601,NaN,NaN,NaN,57.918,1002
90.068,300.502,-4.141,0.003,-254.521,0.098,28.61,-80.601,NaN,NaN,NaN,57.929,1003
90.28,297.628,-4.14,-0.002,-255.758,0.098,28.61,-80.601,NaN,NaN,NaN,57.938,1003
90.491,294.757,-4.14,-0,-257.028,0.098,28.61,-80.601,NaN,NaN,NaN,57.949,1003
90.991,287.966,-4.141,0.002,-260.069,0.098,28.61,-80.601,NaN,NaN,NaN,57.972,1003
91.202,285.092,-4.14,0.001,-261.358,0.098,28.61,-80.601,NaN,NaN,NaN,57.983,1003
91.414,282.221,-4.14,0.001,-262.644,0.098,28.61,-80.601,NaN,NaN,NaN,57.994,1003
91.625,279.35,-4.14,0.005,-263.934,0.098,28.61,-80.601,NaN,NaN,NaN,58.005,1003
91.837,276.48,-4.139,-0.001,-265.2,0.098,28.61,-80.601,NaN,NaN,NaN,58.014,1003
92.048,273.609,-4.139,0.008,-266.43,0.098,28.61,-80.601,NaN,NaN,NaN,58.024,1003
92.259,270.738,-4.137,-0.006,-267.68,0.098,28.61,-80.601,NaN,NaN,NaN,58.035,1004
92.471,267.867,-4.139,-0.001,-268.944,0.098,28.61,-80.601,NaN,NaN,NaN,58.044,1004
92.682,265,-4.139,0.006,-270.187,0.098,28.61,-80.601,NaN,NaN,NaN,58.055,1004
92.894,262.129,-4.138,0.005,-271.444,0.098,28.61,-80.601,NaN,NaN,NaN,58.066,1004
93.105,259.262,-4.137,-0.007,-272.759,0.098,28.61,-80.601,NaN,NaN,NaN,58.075,1004
93.316,256.391,-4.138,0.003,-274.091,0.098,28.61,-80.601,NaN,NaN,NaN,58.086,1004
93.528,253.524,-4.137,-0.003,-275.427,0.098,28.61,-80.601,NaN,NaN,NaN,58.096,1004
93.739,250.653,-4.138,0.001,-276.788,0.098,28.61,-80.601,NaN,NaN,NaN,58.105,1004
93.95,247.785,-4.138,0.001,-278.15,0.098,28.61,-80.601,NaN,NaN,NaN,58.116,1004
94.162,244.918,-4.138,0.005,-279.508,0.098,28.61,-80.601,NaN,NaN,NaN,58.127,1004
94.373,242.047,-4.137,0.004,-280.879,0.098,28.61,-80.601,NaN,NaN,NaN,58.136,1005
94.584,239.18,-4.136,-0.007,-282.244,0.098,28.61,-80.601,NaN,NaN,NaN,58.147,1005
94.796,236.312,-4.137,0.002,-283.586,0.098,28.61,-80.601,NaN,NaN,NaN,58.158,1005
95.007,233.445,-4.137,-0.001,-284.948,0.095,28.61,-80.601,NaN,NaN,NaN,58.167,1005
95.218,230.577,-4.137,0.07,-286.319,0.095,28.61,-80.601,NaN,NaN,NaN,58.177,1005
95.429,227.717,-4.122,-0.048,-287.776,0.095,28.61,-80.601,NaN,NaN,NaN,58.188,1005
95.641,224.846,-4.132,-0.02,-289.275,0.095,28.61,-80.601,NaN,NaN,NaN,58.199,1005
95.853,221.978,-4.136,0.008,-290.719,0.095,28.61,-80.601,NaN,NaN,NaN,58.208,1005
96.064,219.114,-4.135,0.023,-292.185,0.095,28.61,-80.601,NaN,NaN,NaN,58.219,1005
96.275,216.25,-4.13,-0.029,-293.734,0.095,28.61,-80.601,NaN,NaN,NaN,58.23,1006
96.487,213.383,-4.136,0.002,-295.341,0.095,28.61,-80.601,NaN,NaN,NaN,58.239,1006
96.698,210.515,-4.135,0.001,-296.952,0.095,28.61,-80.601,NaN,NaN,NaN,58.249,1006
96.909,207.651,-4.135,0.02,-298.586,0.095,28.61,-80.601,NaN,NaN,NaN,58.26,1006
97.12,204.787,-4.131,-0.012,-300.187,0.095,28.61,-80.601,NaN,NaN,NaN,58.269,1006
97.332,201.923,-4.134,0.028,-301.713,0.095,28.61,-80.601,NaN,NaN,NaN,58.28,1006
97.543,199.058,-4.128,-0.024,-303.153,0.095,28.61,-80.601,NaN,NaN,NaN,58.291,1006
97.754,196.194,-4.133,-0.009,-304.501,0.095,28.61,-80.601,NaN,NaN,NaN,58.3,1006
97.965,193.33,-4.135,0.004,-305.817,0.095,28.61,-80.601,NaN,NaN,NaN,58.311,1006
98.177,190.466,-4.134,-0.001,-307.152,0.095,28.61,-80.601,NaN,NaN,NaN,58.321,1006
98.388,187.602,-4.134,0.017,-308.52,0.095,28.61,-80.601,NaN,NaN,NaN,58.33,1007
98.599,184.741,-4.13,-0.017,-309.856,0.095,28.61,-80.601,NaN,NaN,NaN,58.341,1007
98.81,181.873,-4.134,0,-311.155,0.095,28.61,-80.601,NaN,NaN,NaN,58.352,1007
99.021,179.012,-4.134,0.002,-312.461,0.095,28.61,-80.601,NaN,NaN,NaN,58.361,1007
99.232,176.148,-4.133,0.034,-313.776,0.095,28.61,-80.601,NaN,NaN,NaN,58.372,1007
99.443,173.291,-4.126,-0.015,-315.161,0.095,28.61,-80.601,NaN,NaN,NaN,58.383,1007
99.655,170.427,-4.129,-0.011,-316.65,0.095,28.61,-80.601,NaN,NaN,NaN,58.392,1007
99.866,167.562,-4.132,-0.002,-318.159,0.095,28.61,-80.601,NaN,NaN,NaN,58.402,1007
100.077,164.701,-4.132,-0.002,-319.619,0.095,28.61,-80.601,NaN,NaN,NaN,58.413,1007
100.288,161.841,-4.133,0.001,-321.053,0.095,28.61,-80.601,NaN,NaN,NaN,58.422,1007
100.499,158.98,-4.133,0.001,-322.484,0.095,28.61,-80.601,NaN,NaN,NaN,58.433,1008
100.71,156.119,-4.132,-0,-323.93,0.095,28.61,-80.601,NaN,NaN,NaN,58.444,1008
100.921,153.258,-4.132,0.005,-325.384,0.095,28.61,-80.601,NaN,NaN,NaN,58.453,1008
101.132,150.397,-4.131,-0.002,-326.854,0.095,28.61,-80.601,NaN,NaN,NaN,58.464,1008
101.343,147.536,-4.132,0.015,-328.36,0.095,28.61,-80.601,NaN,NaN,NaN,58.474,1008
101.554,144.678,-4.129,-0.008,-329.833,0.095,28.61,-80.601,NaN,NaN,NaN,58.483,1008
101.765,141.818,-4.13,-0.005,-331.24,0.095,28.61,-80.601,NaN,NaN,NaN,58.494,1008
101.976,138.957,-4.131,0,-332.628,0.095,28.61,-80.601,NaN,NaN,NaN,58.505,1008
102.187,136.099,-4.131,0.018,-334.029,0.095,28.61,-80.601,NaN,NaN,NaN,58.514,1008
102.398,133.241,-4.127,-0.016,-335.387,0.095,28.61,-80.601,NaN,NaN,NaN,58.525,1008
102.609,130.381,-4.131,0.012,-336.716,0.095,28.61,-80.601,NaN,NaN,NaN,58.536,1009
102.82,127.523,-4.128,0.002,-338.087,0.095,28.61,-80.601,NaN,NaN,NaN,58.545,1009
103.031,124.665,-4.128,-0.012,-339.534,0.095,28.61,-80.601,NaN,NaN,NaN,58.555,1009
103.242,121.804,-4.13,0.009,-341.01,0.095,28.61,-80.601,NaN,NaN,NaN,58.566,1009
103.453,118.947,-4.129,-0.008,-342.451,0.095,28.61,-80.601,NaN,NaN,NaN,58.575,1009
103.664,116.089,-4.13,0.006,-343.858,0.095,28.61,-80.601,NaN,NaN,NaN,58.586,1009
103.875,113.232,-4.129,0.003,-345.24,0.095,28.61,-80.601,NaN,NaN,NaN,58.597,1009
104.086,110.374,-4.128,-0.005,-346.624,0.095,28.61,-80.601,NaN,NaN,NaN,58.606,1009
104.297,107.516,-4.129,0.007,-348.051,0.095,28.61,-80.601,NaN,NaN,NaN,58.617,1009
104.508,104.662,-4.128,-0.004,-349.462,0.095,28.61,-80.601,NaN,NaN,NaN,58.627,1010
104.719,101.804,-4.129,-0.001,-350.86,0.095,28.61,-80.601,NaN,NaN,NaN,58.636,1010
104.93,98.947,-4.129,0,-352.283,0.095,28.61,-80.601,NaN,NaN,NaN,58.647,1010
105.141,96.093,-4.129,0.006,-353.711,0.095,28.61,-80.601,NaN,NaN,NaN,58.658,1010
105.351,93.238,-4.128,-0.003,-355.112,0.095,28.61,-80.601,NaN,NaN,NaN,58.667,1010
105.562,90.381,-4.128,0,-356.48,0.095,28.61,-80.601,NaN,NaN,NaN,58.678,1010
105.773,87.526,-4.128,0,-357.841,0.095,28.61,-80.601,NaN,NaN,NaN,58.689,1010
105.984,84.672,-4.128,0.002,-359.213,0.095,28.61,-80.601,NaN,NaN,NaN,58.698,1010
106.195,81.814,-4.128,0.008,-360.594,0.095,28.61,-80.601,NaN,NaN,NaN,58.708,1010
106.405,78.963,-4.126,0.01,-361.959,0.095,28.61,-80.601,NaN,NaN,NaN,58.719,1010
106.616,76.109,-4.124,-0.017,-363.337,0.095,28.61,-80.601,NaN,NaN,NaN,58.728,1011
106.827,73.251,-4.128,0.007,-364.757,0.095,28.61,-80.601,NaN,NaN,NaN,58.739,1011
107.038,70.4,-4.126,-0.004,-366.145,0.095,28.61,-80.601,NaN,NaN,NaN,58.75,1011
107.249,67.546,-4.127,0.004,-367.497,0.095,28.61,-80.601,NaN,NaN,NaN,58.759,1011
107.46,64.692,-4.126,0.003,-368.816,0.095,28.61,-80.601,NaN,NaN,NaN,58.77,1011
107.67,61.837,-4.125,0.03,-370.141,0.095,28.61,-80.601,NaN,NaN,NaN,58.779,1011
107.881,58.986,-4.119,-0.031,-371.555,0.095,28.61,-80.601,NaN,NaN,NaN,58.789,1011
108.092,56.132,-4.126,0.005,-373.015,0.095,28.61,-80.601,NaN,NaN,NaN,58.8,1011
108.303,53.281,-4.125,0.008,-374.419,0.095,28.61,-80.601,NaN,NaN,NaN,58.809,1011
108.514,50.43,-4.123,-0.014,-375.758,0.095,28.61,-80.601,NaN,NaN,NaN,58.82,1011
108.725,47.575,-4.126,0.003,-377.054,0.095,28.61,-80.601,NaN,NaN,NaN,58.831,1012
108.935,44.724,-4.125,0.001,-378.327,0.095,28.61,-80.601,NaN,NaN,NaN,58.84,1012
109.146,41.873,-4.125,-0.002,-379.603,0.095,28.61,-80.601,NaN,NaN,NaN,58.851,1012
109.357,39.019,-4.126,0.006,-380.899,0.095,28.61,-80.601,NaN,NaN,NaN,58.861,1012
109.567,36.168,-4.124,-0.004,-382.178,0.095,28.61,-80.601,NaN,NaN,NaN,58.87,1012
109.778,33.317,-4.125,0.001,-383.442,0.095,28.61,-80.601,NaN,NaN,NaN,58.881,1012
109.989,30.469,-4.125,0.002,-384.705,0.095,28.61,-80.601,NaN,NaN,NaN,58.892,1012
110.199,27.618,-4.125,0.004,-385.978,0.095,28.61,-80.601,NaN,NaN,NaN,58.901,1012
110.41,24.767,-4.124,-0.003,-387.28,0.095,28.61,-80.601,NaN,NaN,NaN,58.912,1012
110.621,21.916,-4.125,0.003,-388.606,0.095,28.61,-80.601,NaN,NaN,NaN,58.923,1012
110.831,19.068,-4.124,-0.001,-389.921,0.095,28.61,-80.601,NaN,NaN,NaN,58.932,1013
111.042,16.217,-4.124,0,-391.211,0.095,28.61,-80.601,NaN,NaN,NaN,58.942,1013
111.252,13.369,-4.124,0.001,-392.5,0.095,28.61,-80.601,NaN,NaN,NaN,58.953,1013
111.463,10.518,-4.124,0.027,-393.793,0.095,28.61,-80.601,NaN,NaN,NaN,58.962,1013
111.673,7.671,-4.118,-0.024,-395.039,0.092,28.61,-80.601,NaN,NaN,NaN,58.973,1013
111.884,4.823,-4.123,-0.001,-396.247,0.092,28.61,-80.601,NaN,NaN,NaN,58.982,1013
112.241,0,-4.123,0.001,-398.327,0.092,28.61,-80.601,NaN,NaN,NaN,59,1013
