# Time (s),Altitude (ft),Vertical velocity (m/s),Vertical acceleration (m/s²),Position East of launch (ft),Position North of launch (ft),Latitude (° N),Longitude (° E),Roll rate (r/s),Pitch rate (r/s),Yaw rate (r/s),Air temperature (°F),Air pressure (mbar)
0,0,0,0,0,0,28.61,-80.6,0,0,0,59,1013.25
0.011,0.003,0.237,49.576,-0,0,28.61,-80.6,0,0,0,59,1013.25
0.021,0.019,0.734,49.79,-0,0,28.61,-80.6,0,0,0,59,1013.249
0.031,0.051,1.233,50.005,-0,0,28.61,-80.6,0,0,0,59,1013.248
0.041,0.099,1.734,50.219,-0,0,28.61,-80.6,0,0,0,59,1013.246
0.051,0.165,2.237,50.432,-0,0,28.61,-80.6,0,0,0,58.999,1013.244
0.055,0.195,2.439,50.518,-0,0,28.61,-80.6,0,0,0,58.999,1013.243
0.061,0.246,2.741,50.258,-0,0,28.61,-80.6,0,0,0,58.999,1013.241
0.07,0.334,3.192,49.869,-0,0,28.61,-80.6,0,0,0,58.999,1013.238
0.08,0.447,3.688,49.435,-0,0,28.61,-80.6,0,0,0,58.998,1013.234
0.089,0.562,4.131,49.045,-0,0,28.61,-80.6,0,0,0,58.998,1013.23
0.099,0.706,4.625,49.622,-0,0,28.61,-80.6,0,0,0,58.997,1013.225
0.109,0.866,5.124,50.199,-0,0,28.61,-80.6,0,0,0,58.997,1013.219
0.119,1.042,5.629,50.776,-0,0,28.61,-80.6,0,0,0,58.996,1013.213
0.129,1.235,6.139,51.353,-0,0,28.61,-80.6,0,0,0,58.996,1013.206
0.139,1.445,6.656,51.93,-0,0,28.61,-80.6,0,0,0,58.995,1013.198
0.149,1.672,7.178,52.508,-0,0,28.61,-80.6,0,0,0,58.994,1013.19
0.155,1.816,7.494,52.855,-0,0,28.61,-80.6,0,0,0,58.994,1013.185
0.164,2.045,7.97,52.957,-0,0,28.61,-80.6,0,0,0,58.993,1013.177
0.174,2.315,8.5,53.07,-0,0,28.61,-80.6,0,0,0,58.992,1013.167
0.184,2.602,9.032,53.183,-0,0,28.61,-80.6,0,0,0,58.991,1013.157
0.194,2.907,9.564,53.296,-0,0,28.61,-80.6,0,0,0,58.99,1013.146
0.2,3.099,9.884,53.363,-0,0,28.61,-80.6,0,0,0,58.989,1013.139
0.209,3.398,10.364,53.417,-0,0,28.61,-80.6,0,0,0,58.988,1013.129
0.219,3.747,10.899,53.477,-0,0,28.61,-80.6,0,0,0,58.987,1013.116
0.229,4.113,11.434,53.536,-0,0,28.61,-80.6,0,0,0,58.985,1013.103
0.239,4.497,11.97,53.596,-0,0,28.61,-80.6,0,0,0,58.984,1013.089
0.249,4.898,12.506,53.655,-0.001,0,28.61,-80.6,0,0,0,58.983,1013.075
0.259,5.317,13.043,53.714,-0.001,0,28.61,-80.6,0,0,0,58.981,1013.06
0.269,5.754,13.58,53.773,-0.001,0,28.61,-80.6,0,0,0,58.979,1013.044
0.279,6.209,14.118,53.832,-0.001,0,28.61,-80.6,0,0,0,58.978,1013.028
0.289,6.681,14.657,53.891,-0.001,0,28.61,-80.6,0,0,0,58.976,1013.011
0.3,7.22,15.25,53.955,-0.001,0,28.61,-80.6,0,0,0,58.974,1012.992
0.31,7.729,15.79,54.036,-0.001,0,28.61,-80.6,0,0,0,58.972,1012.974
0.32,8.256,16.331,54.116,-0.001,0,28.61,-80.6,0,0,0,58.971,1012.955
0.33,8.801,16.872,54.197,-0.001,0,28.61,-80.6,0,0,0,58.969,1012.935
0.34,9.363,17.415,54.277,-0.001,0,28.61,-80.6,0,0,0,58.967,1012.915
0.35,9.944,17.958,54.357,-0.001,0,28.61,-80.6,0,0,0,58.965,1012.895
0.36,10.542,18.502,54.437,-0.001,0,28.61,-80.6,0,0,0,58.962,1012.873
0.37,11.158,19.047,54.517,-0.001,0,28.61,-80.6,0,0,0,58.96,1012.851
0.38,11.792,19.592,54.597,-0.001,0,28.61,-80.6,0,0,0,58.958,1012.828
0.39,12.443,20.139,54.677,-0.001,0,28.61,-80.6,0,0,0,58.956,1012.805
0.4,13.113,20.686,54.757,-0.001,0,28.61,-80.6,0,0,0,58.953,1012.781
0.41,13.801,21.234,54.859,-0.001,0,28.61,-80.6,0,0,0,58.951,1012.757
0.42,14.506,21.783,54.961,-0.001,0,28.61,-80.6,0,0,0,58.948,1012.731
0.43,15.23,22.333,55.063,-0.001,0,28.61,-80.6,0,0,0,58.946,1012.706
0.445,16.349,23.16,55.216,-0.001,0,28.61,-80.6,0,0,-0,58.942,1012.666
0.468,18.105,24.405,55.444,-0.002,0,28.61,-80.6,0,0.001,0,58.935,1012.603
0.5,20.803,26.212,55.774,-0.005,-0,28.61,-80.6,0,0.002,0,58.926,1012.506
0.549,25.214,28.943,56.267,-0.012,-0,28.61,-80.6,0,0.004,0,58.91,1012.349
0.6,30.324,31.84,56.784,-0.023,-0,28.61,-80.6,0,0.006,-0,58.892,1012.166
0.65,35.78,34.687,57.065,-0.037,-0,28.61,-80.6,0,0.008,-0,58.872,1011.971
0.7,41.705,37.547,57.344,-0.053,-0,28.61,-80.6,0,0.011,-0,58.851,1011.759
0.75,48.1,40.426,57.841,-0.07,-0,28.61,-80.6,0,0.013,-0,58.828,1011.531
0.8,54.969,43.331,58.333,-0.084,-0,28.61,-80.6,0,0.015,-0,58.804,1011.285
0.85,62.317,46.257,58.71,-0.093,-0,28.61,-80.6,0,0.017,-0,58.778,1011.022
0.9,70.146,49.202,59.079,-0.095,-0,28.61,-80.6,0,0.019,-0,58.75,1010.742
0.95,78.46,52.153,58.991,-0.085,0,28.61,-80.6,0,0.02,-0,58.72,1010.445
1,87.257,55.101,58.894,-0.057,0,28.61,-80.6,0,0.021,0,58.689,1010.131
1.05,96.537,58.051,59.121,-0.009,0,28.61,-80.6,0,-0.021,0,58.656,1009.799
1.1,106.303,61.013,59.34,0.067,0,28.61,-80.6,0,-0.02,0,58.621,1009.45
1.15,116.555,63.976,59.199,0.174,0,28.61,-80.6,0,-0.019,0,58.584,1009.083
1.2,127.292,66.933,59.065,0.32,0,28.61,-80.6,0,-0.016,0,58.546,1008.7
1.25,138.514,69.885,59.038,0.508,0,28.61,-80.6,0,-0.012,-0,58.506,1008.298
1.3,150.22,72.837,59.016,0.743,0,28.61,-80.6,0,-0.007,-0,58.464,1007.88
1.35,162.41,75.781,58.781,1.028,0,28.61,-80.6,0,-0.002,-0,58.421,1007.444
1.4,175.082,78.715,58.562,1.364,0,28.61,-80.6,0,0.003,0,58.376,1006.991
1.45,188.235,81.635,58.231,1.749,0,28.61,-80.6,0,0.007,-0,58.329,1006.521
1.5,201.865,84.538,57.915,2.184,0,28.61,-80.6,0,0.012,-0,58.28,1006.034
1.55,215.969,87.42,57.368,2.663,0,28.61,-80.6,0,0.015,-0,58.23,1005.53
1.6,230.544,90.275,56.822,3.182,0,28.61,-80.6,0,0.017,-0,58.178,1005.009
1.65,245.586,93.108,56.5,3.737,0,28.61,-80.6,0,-0.017,-0,58.124,1004.471
1.7,261.091,95.925,56.162,4.319,0,28.61,-80.6,0,-0.015,-0,58.069,1003.917
1.75,277.056,98.724,55.812,4.925,0,28.61,-80.6,0,-0.012,-0,58.012,1003.346
1.8,293.48,101.506,55.443,5.547,0,28.61,-80.6,0,-0.007,-0,57.953,1002.759
1.85,310.357,104.263,54.832,6.182,0,28.61,-80.6,0,-0.002,-0,57.893,1002.155
1.9,327.685,106.989,54.209,6.828,0,28.61,-80.6,0,0.004,-0,57.831,1001.536
1.95,345.457,109.689,53.803,7.486,0,28.61,-80.6,0,0.01,-0,57.768,1000.901
2,363.671,112.369,53.383,8.157,0,28.61,-80.6,0,0.014,-0,57.703,1000.25
2.05,382.322,115.024,52.824,8.846,0,28.61,-80.6,0,0.016,-0,57.637,999.583
2.1,401.407,117.651,52.246,9.56,0,28.61,-80.6,0,-0.016,-0,57.569,998.901
2.15,420.92,120.24,51.323,10.305,0,28.61,-80.6,0,-0.013,0,57.499,998.203
2.2,440.853,122.783,50.394,11.087,0,28.61,-80.6,0,-0.008,-0,57.428,997.49
2.227,451.789,124.105,47.551,11.527,0,28.61,-80.6,0,-0.004,-0,57.389,997.099
2.25,461.191,125.046,34.247,11.911,0,28.61,-80.6,0,-0.001,-0,57.355,996.763
2.285,475.405,126.04,23.368,12.501,0,28.61,-80.6,0,0.003,-0,57.305,996.255
2.29,477.68,126.163,21.635,12.596,0,28.61,-80.6,0,0.004,-0,57.297,996.174
2.298,481.098,126.338,20.772,12.74,0,28.61,-80.6,0,0.005,-0,57.284,996.052
2.311,486.232,126.587,19.478,12.957,0,28.61,-80.6,0,0.006,-0,57.266,995.868
2.329,493.952,126.931,17.539,13.285,0,28.61,-80.6,0,0.008,-0,57.238,995.592
2.357,505.568,127.379,14.637,13.782,0,28.61,-80.6,0,0.01,-0,57.197,995.177
2.366,509.318,127.506,13.704,13.944,0,28.61,-80.6,0,0.011,-0,57.184,995.043
2.379,514.95,127.669,10.477,14.187,0,28.61,-80.6,0,0.012,-0,57.164,994.842
2.4,523.562,127.833,5.551,14.561,0,28.61,-80.6,0,0.012,-0,57.133,994.534
2.431,536.493,127.896,-1.447,15.124,0,28.61,-80.6,0,-0.012,-0,57.087,994.071
2.44,540.345,127.874,-3.529,15.292,0,28.61,-80.6,0,-0.012,-0,57.073,993.934
2.454,546.12,127.813,-5.339,15.544,0,28.61,-80.6,0,-0.012,-0,57.052,993.727
2.474,554.777,127.674,-8.052,15.922,0,28.61,-80.6,0,-0.011,-0,57.022,993.418
2.5,565.481,127.425,-11.41,16.389,0,28.61,-80.6,0,-0.009,-0,56.983,993.035
2.538,581.491,126.969,-12.359,17.086,0.001,28.61,-80.6,0,-0.006,-0,56.926,992.463
2.588,602.267,126.321,-13.594,17.986,0.001,28.61,-80.6,0,-0.001,-0,56.852,991.72
2.6,607.086,126.161,-13.882,18.194,0.001,28.61,-80.6,0,0,-0,56.835,991.548
2.617,614.303,125.919,-13.865,18.505,0.001,28.61,-80.6,0,0.002,-0,56.809,991.29
2.644,625.103,125.556,-13.841,18.969,0.001,28.61,-80.6,0,0.004,-0,56.771,990.904
2.683,641.245,125.013,-13.812,19.66,0.001,28.61,-80.6,0,0.008,-0,56.713,990.327
2.733,661.696,124.323,-13.775,20.533,0.001,28.61,-80.6,0,0.011,-0,56.64,989.596
2.783,682.034,123.635,-13.752,21.4,0.001,28.61,-80.6,0,0.012,-0,56.568,988.869
2.833,702.259,122.948,-13.729,22.265,0.001,28.61,-80.6,0,-0.011,-0,56.496,988.146
2.883,722.371,122.262,-13.704,23.13,0.001,28.61,-80.6,0,-0.009,-0,56.424,987.427
2.933,742.371,121.578,-13.669,23.999,0.001,28.61,-80.6,0,-0.005,-0,56.353,986.712
2.983,762.259,120.896,-13.623,24.872,0.001,28.61,-80.6,0,-0.001,-0,56.282,986.001
3.033,782.035,120.216,-13.571,25.749,0.001,28.61,-80.6,0,0.002,-0,56.211,985.294
3.083,801.7,119.539,-13.511,26.629,0.001,28.61,-80.6,0,0.005,-0,56.141,984.591
3.133,821.254,118.865,-13.452,27.512,0.001,28.61,-80.6,0,0.007,-0,56.071,983.892
3.183,840.698,118.194,-13.398,28.394,0.001,28.61,-80.6,0,0.008,-0,56.002,983.197
3.233,860.032,117.525,-13.335,29.275,0.002,28.61,-80.6,0,-0.008,-0,55.933,982.506
3.283,879.256,116.86,-13.276,30.153,0.002,28.61,-80.6,0,-0.006,-0,55.864,981.818
3.333,898.372,116.197,-13.228,31.025,0.002,28.61,-80.6,0,-0.003,-0,55.796,981.135
3.383,917.379,115.537,-13.186,31.89,0.002,28.61,-80.6,0,0,-0,55.728,980.456
3.433,936.278,114.879,-13.148,32.747,0.002,28.61,-80.6,0,0.003,-0,55.661,979.78
3.483,955.069,114.222,-13.117,33.599,0.002,28.61,-80.6,0,0.006,-0,55.594,979.108
3.533,973.752,113.567,-13.088,34.445,0.002,28.61,-80.6,0,0.007,-0,55.527,978.44
3.583,992.328,112.913,-13.06,35.289,0.002,28.61,-80.6,0,-0.007,-0,55.461,977.776
3.633,1010.797,112.261,-13.032,36.131,0.002,28.61,-80.6,0,-0.006,-0,55.395,977.116
3.683,1029.159,111.61,-13.004,36.973,0.002,28.61,-80.6,0,-0.005,-0,55.33,976.46
3.733,1047.415,110.961,-12.967,37.817,0.003,28.61,-80.6,0,-0.003,-0,55.265,975.807
3.783,1065.564,110.313,-12.928,38.662,0.003,28.61,-80.6,0,-0.001,0,55.2,975.158
3.833,1083.607,109.668,-12.89,39.509,0.003,28.61,-80.6,0,0.001,0,55.136,974.513
3.883,1101.544,109.025,-12.845,40.357,0.003,28.61,-80.6,0,0.003,0,55.072,973.872
3.933,1119.376,108.383,-12.798,41.206,0.003,28.61,-80.6,0,0.004,0,55.008,973.235
3.983,1137.103,107.745,-12.75,42.055,0.003,28.61,-80.6,0,0.005,0,54.945,972.601
4.033,1154.726,107.108,-12.703,42.902,0.003,28.61,-80.6,0,-0.005,-0,54.882,971.971
4.083,1172.244,106.474,-12.658,43.747,0.003,28.61,-80.6,0,-0.003,-0,54.82,971.345
4.133,1189.659,105.843,-12.617,44.588,0.004,28.61,-80.6,0,-0.002,-0,54.757,970.722
4.183,1206.97,105.213,-12.58,45.423,0.004,28.61,-80.6,0,0,-0,54.696,970.103
4.233,1224.177,104.584,-12.547,46.254,0.004,28.61,-80.6,0,0.002,-0,54.634,969.488
4.283,1241.282,103.958,-12.516,47.08,0.004,28.61,-80.6,0,0.004,-0,54.573,968.877
4.333,1258.284,103.333,-12.485,47.903,0.004,28.61,-80.6,0,0.005,0,54.513,968.269
4.383,1275.184,102.709,-12.46,48.721,0.004,28.61,-80.6,0,0.006,0,54.452,967.665
4.433,1291.982,102.087,-12.438,49.538,0.005,28.61,-80.6,0,-0.006,0,54.393,967.064
4.483,1308.677,101.466,-12.413,50.353,0.005,28.61,-80.6,0,-0.005,0,54.333,966.467
4.533,1325.271,100.846,-12.385,51.169,0.005,28.61,-80.6,0,-0.004,0,54.274,965.874
4.583,1341.763,100.227,-12.359,51.986,0.005,28.61,-80.6,0,-0.002,-0,54.215,965.285
4.633,1358.154,99.61,-12.329,52.804,0.005,28.61,-80.6,0,-0,-0,54.157,964.699
4.683,1374.444,98.994,-12.292,53.624,0.005,28.61,-80.6,0,0.001,-0,54.099,964.116
4.733,1390.632,98.381,-12.252,54.445,0.006,28.61,-80.6,0,0.003,-0,54.041,963.538
4.783,1406.721,97.769,-12.213,55.267,0.006,28.61,-80.6,0,0.004,-0,53.983,962.963
4.833,1422.709,97.159,-12.172,56.088,0.006,28.61,-80.6,0,0,0,53.926,962.391
4.883,1438.597,96.552,-12.135,56.908,0.006,28.61,-80.6,0,-0.004,-0,53.87,961.823
4.933,1454.386,95.946,-12.096,57.725,0.006,28.61,-80.6,0,-0.003,-0,53.813,961.259
4.983,1470.076,95.342,-12.055,58.54,0.006,28.61,-80.6,0,-0.002,-0,53.757,960.698
5.033,1485.666,94.74,-12.02,59.349,0.007,28.61,-80.6,0,0.001,-0,53.702,960.14
5.083,1501.159,94.14,-11.991,60.153,0.007,28.61,-80.6,0,0.003,-0,53.647,959.587
5.133,1516.552,93.541,-11.964,60.952,0.007,28.61,-80.6,0,0.005,-0,53.592,959.036
5.183,1531.848,92.943,-11.944,61.746,0.007,28.61,-80.6,0,0.007,-0,53.537,958.49
5.233,1547.046,92.347,-11.926,62.537,0.007,28.61,-80.6,0,0.008,-0,53.483,957.946
5.283,1562.146,91.751,-11.906,63.325,0.008,28.61,-80.6,0,-0.008,-0,53.429,957.407
5.333,1577.148,91.156,-11.886,64.112,0.008,28.61,-80.6,0,-0.008,-0,53.376,956.87
5.383,1592.052,90.562,-11.87,64.898,0.008,28.61,-80.6,0,-0.007,-0,53.322,956.337
5.433,1606.86,89.969,-11.849,65.685,0.008,28.61,-80.6,0,-0.006,-0,53.27,955.808
5.483,1621.57,89.377,-11.829,66.474,0.008,28.61,-80.6,0,-0.004,-0,53.217,955.282
5.533,1636.183,88.786,-11.807,67.264,0.009,28.61,-80.6,0,-0.001,-0,53.165,954.76
5.583,1650.699,88.197,-11.779,68.057,0.009,28.61,-80.6,0,0.001,-0,53.113,954.258
5.633,1665.119,87.609,-11.744,68.853,0.009,28.61,-80.6,0,0.003,0,53.062,953.767
5.683,1679.442,87.022,-11.705,69.65,0.009,28.61,-80.6,0,0.004,-0,53.011,953.28
5.733,1693.67,86.438,-11.664,70.447,0.009,28.61,-80.6,0,0.005,-0,52.96,952.795
5.783,1707.801,85.856,-11.625,71.244,0.01,28.61,-80.6,0,-0.005,-0,52.91,952.314
5.833,1721.838,85.275,-11.589,72.038,0.01,28.61,-80.6,0,-0.004,-0,52.86,951.836
5.883,1735.779,84.697,-11.551,72.829,0.01,28.61,-80.6,0,-0.002,-0,52.81,951.361
5.933,1749.626,84.12,-11.526,73.615,0.01,28.61,-80.6,0,0,-0,52.761,950.889
5.983,1763.378,83.544,-11.506,74.396,0.01,28.61,-80.6,0,0.002,-0,52.712,950.421
6.033,1777.035,82.97,-11.487,75.172,0.011,28.61,-80.6,0,0.004,-0,52.663,949.956
6.083,1790.599,82.396,-11.473,75.945,0.011,28.61,-80.6,0,0.005,-0,52.614,949.494
6.133,1804.068,81.822,-11.458,76.715,0.011,28.61,-80.6,0,0.006,-0,52.566,949.036
6.183,1817.443,81.25,-11.438,77.484,0.011,28.61,-80.6,0,-0.006,-0,52.519,948.58
6.233,1830.725,80.678,-11.418,78.251,0.012,28.61,-80.6,0,-0.006,-0,52.471,948.128
6.283,1843.913,80.108,-11.404,79.018,0.012,28.61,-80.6,0,-0.005,-0,52.424,947.679
6.333,1857.007,79.538,-11.385,79.784,0.012,28.61,-80.6,0,-0.004,-0,52.378,947.233
6.383,1870.008,78.969,-11.366,80.551,0.012,28.61,-80.6,0,-0.003,0,52.331,946.79
6.433,1882.916,78.402,-11.345,81.319,0.013,28.61,-80.6,0,-0.002,0,52.285,946.35
6.483,1895.73,77.835,-11.316,82.088,0.013,28.61,-80.6,0,-0.001,0,52.24,945.914
6.533,1908.452,77.27,-11.293,82.858,0.013,28.61,-80.6,0,0,0,52.194,945.481
6.583,1921.081,76.706,-11.272,83.628,0.013,28.61,-80.6,0,0.001,0,52.149,945.051
6.633,1933.618,76.143,-11.248,84.398,0.014,28.61,-80.6,0,0.002,0,52.104,944.624
6.683,1946.063,75.581,-11.222,85.168,0.014,28.61,-80.6,0,0.003,0,52.06,944.2
6.733,1958.415,75.021,-11.192,85.938,0.014,28.61,-80.6,0,0.003,-0,52.016,943.779
6.783,1970.676,74.462,-11.165,86.708,0.014,28.61,-80.6,0,-0.003,-0,51.972,943.362
6.833,1982.845,73.904,-11.141,87.476,0.015,28.61,-80.6,0,-0.003,-0,51.929,942.947
6.883,1994.923,73.348,-11.119,88.242,0.015,28.61,-80.6,0,-0.002,-0,51.886,942.536
6.933,2006.909,72.792,-11.091,89.007,0.015,28.61,-80.6,0,-0.002,-0,51.843,942.128
6.983,2018.805,72.238,-11.064,89.769,0.016,28.61,-80.6,0,-0,-0,51.801,941.723
7.033,2030.609,71.686,-11.047,90.527,0.016,28.61,-80.6,0,0.001,-0,51.759,941.321
7.083,2042.324,71.134,-11.032,91.283,0.016,28.61,-80.6,0,0.002,0,51.717,940.922
7.133,2053.947,70.583,-11.013,92.036,0.016,28.61,-80.6,0,0.003,0,51.675,940.526
7.183,2065.481,70.032,-10.994,92.787,0.017,28.61,-80.6,0,0.004,0,51.634,940.133
7.233,2076.924,69.483,-10.979,93.535,0.017,28.61,-80.6,0,0.004,0,51.593,939.744
7.283,2088.277,68.934,-10.965,94.282,0.017,28.61,-80.6,0,0.005,0,51.553,939.357
7.333,2099.54,68.387,-10.95,95.028,0.018,28.61,-80.6,0,0,0,51.513,938.974
7.383,2110.714,67.84,-10.932,95.772,0.018,28.61,-80.6,0,-0.005,0,51.473,938.593
7.433,2121.797,67.293,-10.908,96.516,0.018,28.61,-80.6,0,0.005,0,51.433,938.216
7.483,2132.792,66.749,-10.891,97.258,0.018,28.61,-80.6,0,0.005,0,51.394,937.841
7.533,2143.696,66.204,-10.88,97.999,0.019,28.61,-80.6,0,-0.005,0,51.355,937.47
7.583,2154.512,65.661,-10.863,98.74,0.019,28.61,-80.6,0,-0.005,0,51.317,937.102
7.633,2165.239,65.118,-10.852,99.479,0.019,28.61,-80.6,0,-0.005,0,51.278,936.736
7.683,2175.876,64.576,-10.836,100.219,0.02,28.61,-80.6,0,-0.004,0,51.24,936.374
7.733,2186.425,64.034,-10.814,100.959,0.02,28.61,-80.6,0,-0.003,0,51.203,936.015
7.783,2196.885,63.494,-10.794,101.699,0.02,28.61,-80.6,0,-0.003,-0,51.166,935.659
7.833,2207.257,62.955,-10.779,102.438,0.021,28.61,-80.6,0,-0.003,-0,51.129,935.305
7.883,2217.54,62.416,-10.768,103.176,0.021,28.61,-80.6,0,-0.002,0,51.092,934.955
7.933,2227.734,61.878,-10.752,103.915,0.021,28.61,-80.6,0,-0.002,0,51.056,934.608
7.983,2237.841,61.341,-10.726,104.654,0.022,28.61,-80.6,0,-0.001,-0,51.02,934.264
8.033,2247.859,60.805,-10.708,105.392,0.022,28.61,-80.6,0,-0.001,-0,50.984,933.923
8.083,2257.79,60.27,-10.691,106.13,0.022,28.61,-80.6,0,-0.001,-0,50.948,933.585
8.133,2267.633,59.736,-10.678,106.867,0.022,28.61,-80.6,0,-0.001,-0,50.913,933.249
8.183,2277.389,59.203,-10.656,107.603,0.023,28.61,-80.6,0,0.001,-0,50.878,932.917
8.233,2287.057,58.671,-10.631,108.339,0.023,28.61,-80.6,0,0.001,0,50.844,932.588
8.283,2296.638,58.14,-10.611,109.072,0.023,28.61,-80.6,0,0.002,0,50.81,932.262
8.333,2306.132,57.61,-10.594,109.804,0.024,28.61,-80.6,0,0.003,0,50.776,931.938
8.383,2315.539,57.08,-10.58,110.533,0.024,28.61,-80.6,0,0.004,0,50.742,931.618
8.433,2324.859,56.552,-10.567,111.26,0.025,28.61,-80.6,0,0.004,0,50.709,931.301
8.483,2334.092,56.023,-10.556,111.985,0.025,28.61,-80.6,0,0.005,0,50.676,930.986
8.533,2343.239,55.496,-10.545,112.708,0.025,28.61,-80.6,0,0.006,0,50.644,930.675
8.583,2352.3,54.969,-10.539,113.43,0.026,28.61,-80.6,0,-0.006,0,50.611,930.366
8.633,2361.274,54.442,-10.53,114.151,0.026,28.61,-80.6,0,-0.006,0,50.579,930.06
8.683,2370.161,53.916,-10.521,114.872,0.026,28.61,-80.6,0,-0.005,0,50.548,929.758
8.733,2378.963,53.39,-10.509,115.593,0.027,28.61,-80.6,0,-0.005,0,50.516,929.458
8.783,2387.678,52.865,-10.496,116.313,0.027,28.61,-80.6,0,-0.004,0,50.485,929.161
8.833,2396.307,52.34,-10.483,117.035,0.027,28.61,-80.6,0,-0.004,0,50.454,928.867
8.883,2404.85,51.817,-10.471,117.756,0.028,28.61,-80.6,0,-0.003,0,50.424,928.577
8.933,2413.307,51.293,-10.455,118.477,0.028,28.61,-80.6,0,-0.002,0,50.394,928.289
8.983,2421.678,50.771,-10.44,119.199,0.028,28.61,-80.6,0,-0.002,0,50.364,928.003
9.033,2429.964,50.25,-10.423,119.92,0.029,28.61,-80.6,0,-0.002,0,50.334,927.721
9.083,2438.165,49.729,-10.409,120.642,0.029,28.61,-80.6,0,-0.001,0,50.305,927.442
9.133,2446.28,49.209,-10.392,121.363,0.03,28.61,-80.6,0,-0.001,0,50.276,927.166
9.183,2454.309,48.69,-10.375,122.083,0.03,28.61,-80.6,0,0.001,-0,50.248,926.892
9.233,2462.254,48.171,-10.358,122.803,0.03,28.61,-80.6,0,0.002,-0,50.219,926.622
9.283,2470.113,47.654,-10.344,123.521,0.031,28.61,-80.6,0,0.002,-0,50.191,926.354
9.333,2477.888,47.137,-10.33,124.238,0.031,28.61,-80.6,0,0.002,-0,50.163,926.089
9.383,2485.578,46.621,-10.318,124.953,0.031,28.61,-80.6,0,0.003,-0,50.136,925.827
9.433,2493.184,46.105,-10.304,125.667,0.032,28.61,-80.6,0,0.003,-0,50.109,925.568
9.483,2500.705,45.59,-10.289,126.38,0.032,28.61,-80.6,0,0.004,-0,50.082,925.312
9.533,2508.141,45.076,-10.278,127.091,0.033,28.61,-80.6,0,0.005,-0,50.056,925.059
9.583,2515.494,44.563,-10.266,127.8,0.033,28.61,-80.6,0,0.005,-0,50.029,924.809
9.633,2522.762,44.05,-10.253,128.507,0.033,28.61,-80.6,0,0.006,-0,50.003,924.561
9.683,2529.946,43.537,-10.244,129.212,0.034,28.61,-80.6,0,0.007,-0,49.978,924.317
9.733,2537.046,43.025,-10.232,129.916,0.034,28.61,-80.6,0,0.007,-0,49.952,924.075
9.783,2544.062,42.514,-10.224,130.618,0.035,28.61,-80.6,0,0.008,-0,49.927,923.836
9.833,2550.994,42.003,-10.213,131.318,0.035,28.61,-80.6,0,0.009,-0,49.903,923.6
9.883,2557.842,41.493,-10.203,132.017,0.035,28.61,-80.6,0,0.009,-0,49.878,923.367
9.933,2564.607,40.983,-10.194,132.715,0.036,28.61,-80.6,0,0.01,-0,49.854,923.136
9.983,2571.288,40.473,-10.187,133.41,0.036,28.61,-80.6,0,0.01,-0,49.83,922.909
10.033,2577.885,39.964,-10.178,134.105,0.037,28.61,-80.6,0,0.01,-0,49.807,922.684
10.083,2584.399,39.455,-10.173,134.798,0.037,28.61,-80.6,0,0.011,0,49.784,922.462
10.133,2590.83,38.947,-10.167,135.491,0.037,28.61,-80.6,0,0.011,0,49.761,922.243
10.183,2597.177,38.439,-10.162,136.183,0.038,28.61,-80.6,0,-0.011,0,49.738,922.027
10.233,2603.441,37.931,-10.158,136.874,0.038,28.61,-80.6,0,-0.011,0,49.716,921.814
10.283,2609.622,37.423,-10.147,137.565,0.039,28.61,-80.6,0,-0.01,0,49.694,921.603
10.333,2615.719,36.916,-10.139,138.256,0.039,28.61,-80.6,0,-0.01,0,49.672,921.396
10.383,2621.733,36.409,-10.135,138.947,0.04,28.61,-80.6,0,-0.01,0,49.65,921.191
10.433,2627.664,35.902,-10.129,139.638,0.04,28.61,-80.6,0,-0.009,0,49.629,920.989
10.483,2633.512,35.396,-10.123,140.329,0.04,28.61,-80.6,0,-0.009,0,49.608,920.79
10.533,2639.277,34.89,-10.116,141.02,0.041,28.61,-80.6,0,-0.008,0,49.588,920.593
10.583,2644.959,34.384,-10.105,141.712,0.041,28.61,-80.6,0,-0.008,0,49.568,920.4
10.633,2650.558,33.879,-10.099,142.403,0.042,28.61,-80.6,0,-0.007,0,49.548,920.209
10.683,2656.074,33.375,-10.093,143.096,0.042,28.61,-80.6,0,-0.007,0,49.528,920.021
10.733,2661.508,32.87,-10.081,143.788,0.043,28.61,-80.6,0,-0.006,0,49.509,919.836
10.783,2666.859,32.367,-10.069,144.481,0.043,28.61,-80.6,0,-0.006,0,49.49,919.654
10.833,2672.127,31.863,-10.059,145.174,0.044,28.61,-80.6,0,-0.006,0,49.471,919.475
10.883,2677.312,31.361,-10.051,145.867,0.044,28.61,-80.6,0,-0.005,0,49.452,919.298
10.933,2682.416,30.858,-10.043,146.56,0.044,28.61,-80.6,0,-0.005,0,49.434,919.124
10.983,2687.437,30.356,-10.031,147.253,0.045,28.61,-80.6,0,-0.005,0,49.416,918.953
11.033,2692.375,29.855,-10.017,147.946,0.045,28.61,-80.6,0,-0.005,0,49.399,918.785
11.083,2697.232,29.355,-10.006,148.639,0.046,28.61,-80.6,0,0.005,0,49.381,918.62
11.133,2702.006,28.855,-9.996,149.331,0.046,28.61,-80.6,0,0.005,0,49.364,918.457
11.183,2706.698,28.355,-9.984,150.023,0.047,28.61,-80.6,0,0.005,-0,49.347,918.297
11.233,2711.309,27.856,-9.979,150.713,0.047,28.61,-80.6,0,0.005,-0,49.331,918.14
11.283,2715.837,27.357,-9.97,151.403,0.048,28.61,-80.6,0,0.005,-0,49.315,917.986
11.333,2720.284,26.859,-9.964,152.092,0.048,28.61,-80.6,0,0.006,-0,49.299,917.835
11.383,2724.649,26.361,-9.96,152.781,0.049,28.61,-80.6,0,0.006,-0,49.283,917.686
11.433,2728.933,25.863,-9.954,153.469,0.049,28.61,-80.6,0,0.006,-0,49.268,917.54
11.483,2733.135,25.365,-9.945,154.156,0.049,28.61,-80.6,0,0.006,-0,49.253,917.397
11.533,2737.255,24.868,-9.934,154.842,0.05,28.61,-80.6,0,0.006,-0,49.239,917.257
11.583,2741.294,24.372,-9.925,155.528,0.05,28.61,-80.6,0,0.007,-0,49.224,917.119
11.633,2745.251,23.876,-9.915,156.212,0.051,28.61,-80.6,0,0.007,-0,49.21,916.985
11.683,2749.127,23.38,-9.905,156.896,0.051,28.61,-80.6,0,0.008,-0,49.196,916.853
11.733,2752.922,22.885,-9.894,157.578,0.052,28.61,-80.6,0,0.008,-0,49.183,916.723
11.783,2756.635,22.391,-9.89,158.259,0.052,28.61,-80.6,0,0.009,-0,49.169,916.597
11.833,2760.268,21.897,-9.883,158.938,0.053,28.61,-80.6,0,0.01,-0,49.156,916.473
11.883,2763.819,21.403,-9.877,159.616,0.053,28.61,-80.6,0,0.01,-0,49.144,916.352
11.933,2767.29,20.909,-9.873,160.292,0.054,28.61,-80.599,0,0.011,-0,49.131,916.234
11.983,2770.679,20.415,-9.867,160.967,0.054,28.61,-80.599,0,0.011,-0,49.119,916.119
12.033,2773.988,19.922,-9.856,161.641,0.055,28.61,-80.599,0,0.012,-0,49.108,916.006
12.083,2777.215,19.43,-9.846,162.313,0.055,28.61,-80.599,0,0.013,-0,49.096,915.896
12.133,2780.362,18.938,-9.839,162.984,0.056,28.61,-80.599,0,0.013,-0,49.085,915.789
12.183,2783.429,18.446,-9.838,163.652,0.056,28.61,-80.599,0,0.014,-0,49.074,915.684
12.233,2786.414,17.954,-9.833,164.319,0.057,28.61,-80.599,0,0.015,-0,49.063,915.583
12.283,2789.319,17.462,-9.825,164.985,0.057,28.61,-80.599,0,0.015,-0,49.053,915.484
12.333,2792.143,16.971,-9.82,165.649,0.058,28.61,-80.599,0,0.016,-0,49.043,915.388
12.383,2794.887,16.48,-9.815,166.311,0.058,28.61,-80.599,0,0.017,-0,49.033,915.294
12.433,2797.55,15.99,-9.81,166.971,0.059,28.61,-80.599,0,0.018,-0,49.023,915.204
12.483,2800.133,15.499,-9.805,167.63,0.059,28.61,-80.599,0,0.018,-0,49.014,915.116
12.533,2802.635,15.009,-9.797,168.287,0.06,28.61,-80.599,0,0.019,-0,49.005,915.03
12.583,2805.057,14.52,-9.786,168.942,0.06,28.61,-80.599,0,0.02,-0,48.997,914.948
12.633,2807.399,14.031,-9.778,169.595,0.061,28.61,-80.599,0,0.02,-0,48.988,914.868
12.683,2809.661,13.542,-9.774,170.246,0.061,28.61,-80.599,0,0.021,-0,48.98,914.791
12.733,2811.842,13.053,-9.766,170.896,0.062,28.61,-80.599,0,0.022,-0,48.973,914.717
12.783,2813.943,12.565,-9.759,171.543,0.062,28.61,-80.599,0,0.023,-0,48.965,914.645
12.833,2815.964,12.077,-9.756,172.188,0.063,28.61,-80.599,0,0.023,-0,48.958,914.577
12.883,2817.906,11.59,-9.751,172.831,0.063,28.61,-80.599,0,0.024,-0,48.951,914.51
12.933,2819.767,11.102,-9.749,173.471,0.064,28.61,-80.599,0,0.025,-0,48.944,914.447
12.983,2821.548,10.615,-9.748,174.11,0.064,28.61,-80.599,0,0.025,-0,48.938,914.386
13.033,2823.249,10.127,-9.743,174.747,0.065,28.61,-80.599,0,0.026,-0,48.932,914.328
13.083,2824.871,9.641,-9.734,175.381,0.065,28.61,-80.599,0,0.026,-0,48.926,914.273
13.133,2826.412,9.154,-9.727,176.014,0.066,28.61,-80.599,0,0.027,-0,48.921,914.221
13.183,2827.874,8.668,-9.714,176.645,0.067,28.61,-80.599,0,0.027,-0,48.915,914.171
13.233,2829.256,8.183,-9.706,177.273,0.067,28.61,-80.599,0,0.028,-0,48.91,914.124
13.283,2830.559,7.697,-9.704,177.899,0.068,28.61,-80.599,0,0.029,-0,48.906,914.08
13.333,2831.782,7.212,-9.697,178.523,0.068,28.61,-80.599,0,0.029,-0,48.901,914.038
13.383,2832.925,6.728,-9.689,179.144,0.069,28.61,-80.599,0,0.029,-0,48.897,913.999
13.433,2833.989,6.243,-9.688,179.764,0.069,28.61,-80.599,0,0.03,-0,48.894,913.963
13.483,2834.973,5.759,-9.687,180.38,0.07,28.61,-80.599,0,0.03,0,48.89,913.929
13.533,2835.878,5.274,-9.682,180.995,0.07,28.61,-80.599,0,0.031,0,48.887,913.898
13.583,2836.704,4.791,-9.673,181.608,0.071,28.61,-80.599,0,0.031,0,48.884,913.87
13.633,2837.45,4.307,-9.671,182.218,0.071,28.61,-80.599,0,0.031,0,48.881,913.845
13.683,2838.117,3.824,-9.663,182.826,0.072,28.61,-80.599,0,0.031,0,48.879,913.822
13.733,2838.704,3.341,-9.657,183.432,0.072,28.61,-80.599,0,0.031,0,48.877,913.802
13.783,2839.213,2.858,-9.649,184.036,0.073,28.61,-80.599,0,0.03,0,48.875,913.785
13.833,2839.642,2.376,-9.636,184.637,0.073,28.61,-80.599,0,0.03,0,48.873,913.77
13.883,2839.992,1.894,-9.623,185.236,0.074,28.61,-80.599,0,0.029,0,48.872,913.758
13.933,2840.264,1.413,-9.724,185.833,0.075,28.61,-80.599,0,0.029,0,48.871,913.749
13.983,2840.456,0.926,-9.726,186.428,0.075,28.61,-80.599,0,0.029,0,48.87,913.742
14.033,2840.568,0.44,-9.727,187.022,0.076,28.61,-80.599,0,0.029,0,48.87,913.739
14.083,2840.6,-0.046,-9.726,187.615,0.076,28.61,-80.599,0,0.029,0,48.87,913.738
14.133,2840.552,-0.532,-9.726,188.208,0.077,28.61,-80.599,NaN,NaN,NaN,48.87,913.739
14.235,2840.205,-1.53,-9.6,189.411,0.078,28.61,-80.599,NaN,NaN,NaN,48.871,913.751
14.339,2839.514,-2.528,-9.46,190.607,0.079,28.61,-80.599,NaN,NaN,NaN,48.874,913.775
14.445,2838.467,-3.525,-9.288,191.794,0.08,28.61,-80.599,NaN,NaN,NaN,48.878,913.81
14.552,2837.051,-4.522,-9.103,192.976,0.081,28.61,-80.599,NaN,NaN,NaN,48.883,913.858
14.662,2835.248,-5.518,-8.879,194.15,0.082,28.61,-80.599,NaN,NaN,NaN,48.889,913.92
14.774,2833.036,-6.513,-8.624,195.32,0.084,28.61,-80.599,NaN,NaN,NaN,48.897,913.995
14.889,2830.382,-7.508,-8.306,196.486,0.085,28.61,-80.599,NaN,NaN,NaN,48.906,914.086
15.009,2827.242,-8.501,-7.951,197.652,0.086,28.61,-80.599,NaN,NaN,NaN,48.918,914.192
15.133,2823.564,-9.492,-7.563,198.816,0.087,28.61,-80.599,NaN,NaN,NaN,48.931,914.318
15.264,2819.281,-10.481,-7.148,199.976,0.089,28.61,-80.599,NaN,NaN,NaN,48.946,914.464
15.402,2814.311,-11.467,-6.688,201.129,0.09,28.61,-80.599,NaN,NaN,NaN,48.964,914.633
15.549,2808.54,-12.451,-6.2,202.276,0.091,28.61,-80.599,NaN,NaN,NaN,48.984,914.829
15.707,2801.816,-13.433,-5.65,203.414,0.093,28.61,-80.599,NaN,NaN,NaN,49.008,915.058
15.88,2793.924,-14.409,-5.072,204.541,0.094,28.61,-80.599,NaN,NaN,NaN,49.036,915.327
16.072,2784.567,-15.38,-4.466,205.647,0.096,28.61,-80.599,NaN,NaN,NaN,49.07,915.646
16.288,2773.299,-16.347,-3.803,206.723,0.097,28.61,-80.599,NaN,NaN,NaN,49.11,916.029
16.539,2759.435,-17.302,-3.111,207.743,0.099,28.61,-80.599,NaN,NaN,NaN,49.159,916.502
16.841,2741.843,-18.241,-2.38,208.651,0.101,28.61,-80.599,NaN,NaN,NaN,49.222,917.101
17.219,2718.684,-19.14,-1.651,209.302,0.103,28.61,-80.599,NaN,NaN,NaN,49.305,917.889
17.719,2686.61,-19.965,-0.964,209.353,0.106,28.61,-80.599,NaN,NaN,NaN,49.419,918.982
18.219,2653.464,-20.447,-0.548,208.601,0.108,28.61,-80.599,NaN,NaN,NaN,49.537,920.11
18.719,2619.698,-20.721,-0.287,207.251,0.109,28.61,-80.599,NaN,NaN,NaN,49.658,921.26
19.219,2585.59,-20.864,-0.158,205.391,0.11,28.61,-80.599,NaN,NaN,NaN,49.779,922.422
19.719,2551.299,-20.943,-0.079,203.091,0.111,28.61,-80.599,NaN,NaN,NaN,49.902,923.589
20.219,2516.911,-20.982,-0.035,200.479,0.111,28.61,-80.599,NaN,NaN,NaN,50.024,924.76
20.719,2482.477,-21,-0.011,197.63,0.112,28.61,-80.599,NaN,NaN,NaN,50.147,925.933
21.219,2448.024,-21.005,0.004,194.613,0.112,28.61,-80.599,NaN,NaN,NaN,50.27,927.106
21.719,2413.569,-21.003,0.011,191.488,0.112,28.61,-80.599,NaN,NaN,NaN,50.393,928.28
22.219,2379.119,-20.997,0.016,188.337,0.112,28.61,-80.599,NaN,NaN,NaN,50.516,929.453
22.719,2344.681,-20.989,0.018,185.179,0.111,28.61,-80.599,NaN,NaN,NaN,50.638,930.626
23.219,2310.258,-20.98,0.021,181.989,0.111,28.61,-80.599,NaN,NaN,NaN,50.761,931.798
23.719,2275.85,-20.97,0.021,178.746,0.111,28.61,-80.599,NaN,NaN,NaN,50.884,932.97
24.219,2241.459,-20.959,0.022,175.503,0.111,28.61,-80.599,NaN,NaN,NaN,51.007,934.141
24.719,2207.085,-20.949,0.021,172.372,0.11,28.61,-80.599,NaN,NaN,NaN,51.129,935.311
25.219,2172.729,-20.938,0.02,169.349,0.11,28.61,-80.599,NaN,NaN,NaN,51.252,936.481
25.719,2138.39,-20.928,0.021,166.354,0.109,28.61,-80.599,NaN,NaN,NaN,51.374,937.651
26.219,2104.067,-20.918,0.021,163.317,0.109,28.61,-80.599,NaN,NaN,NaN,51.497,938.819
26.719,2069.762,-20.907,0.021,160.245,0.108,28.61,-80.599,NaN,NaN,NaN,51.619,939.988
27.219,2035.473,-20.897,0.021,157.155,0.108,28.61,-80.6,NaN,NaN,NaN,51.741,941.155
27.719,2001.202,-20.886,0.021,154.082,0.108,28.61,-80.6,NaN,NaN,NaN,51.863,942.322
28.219,1966.948,-20.876,0.021,151.034,0.107,28.61,-80.6,NaN,NaN,NaN,51.986,943.489
28.719,1932.711,-20.866,0.021,147.989,0.107,28.61,-80.6,NaN,NaN,NaN,52.108,944.655
29.219,1898.491,-20.855,0.021,144.946,0.106,28.61,-80.6,NaN,NaN,NaN,52.23,945.82
29.719,1864.288,-20.845,0.021,141.875,0.106,28.61,-80.6,NaN,NaN,NaN,52.352,946.985
30.219,1830.102,-20.834,0.02,138.732,0.105,28.61,-80.6,NaN,NaN,NaN,52.474,948.149
30.719,1795.933,-20.824,0.021,135.543,0.105,28.61,-80.6,NaN,NaN,NaN,52.595,949.313
31.219,1761.782,-20.814,0.02,132.393,0.104,28.61,-80.6,NaN,NaN,NaN,52.717,950.476
31.719,1727.647,-20.804,0.02,129.263,0.104,28.61,-80.6,NaN,NaN,NaN,52.839,951.638
32.219,1693.528,-20.793,0.021,126.087,0.104,28.61,-80.6,NaN,NaN,NaN,52.961,952.8
32.719,1659.427,-20.783,0.02,122.848,0.103,28.61,-80.6,NaN,NaN,NaN,53.082,953.961
33.219,1625.342,-20.773,0.02,119.579,0.103,28.61,-80.6,NaN,NaN,NaN,53.204,955.147
33.719,1591.274,-20.763,0.021,116.305,0.102,28.61,-80.6,NaN,NaN,NaN,53.325,956.365
34.219,1557.223,-20.752,0.022,113.034,0.102,28.61,-80.6,NaN,NaN,NaN,53.447,957.582
34.719,1523.19,-20.741,0.021,109.823,0.101,28.61,-80.6,NaN,NaN,NaN,53.568,958.799
35.219,1489.174,-20.731,0.021,106.674,0.101,28.61,-80.6,NaN,NaN,NaN,53.689,960.015
35.719,1455.175,-20.72,0.021,103.522,0.1,28.61,-80.6,NaN,NaN,NaN,53.811,961.231
36.219,1421.194,-20.71,0.022,100.379,0.1,28.61,-80.6,NaN,NaN,NaN,53.932,962.445
36.719,1387.23,-20.699,0.021,97.219,0.099,28.61,-80.6,NaN,NaN,NaN,54.053,963.659
37.219,1353.284,-20.688,0.022,93.995,0.099,28.61,-80.6,NaN,NaN,NaN,54.174,964.873
37.719,1319.355,-20.677,0.021,90.804,0.098,28.61,-80.6,NaN,NaN,NaN,54.295,966.086
38.219,1285.444,-20.667,0.022,87.692,0.098,28.61,-80.6,NaN,NaN,NaN,54.416,967.298
38.719,1251.55,-20.656,0.021,84.666,0.097,28.61,-80.6,NaN,NaN,NaN,54.537,968.51
39.219,1217.674,-20.646,0.02,81.649,0.097,28.61,-80.6,NaN,NaN,NaN,54.658,969.721
39.719,1183.815,-20.636,0.02,78.576,0.096,28.61,-80.6,NaN,NaN,NaN,54.778,970.931
40.219,1149.972,-20.625,0.021,75.504,0.096,28.61,-80.6,NaN,NaN,NaN,54.899,972.141
40.719,1116.146,-20.615,0.021,72.436,0.096,28.61,-80.6,NaN,NaN,NaN,55.02,973.35
41.219,1082.338,-20.605,0.021,69.342,0.095,28.61,-80.6,NaN,NaN,NaN,55.14,974.559
41.719,1048.546,-20.594,0.021,66.197,0.095,28.61,-80.6,NaN,NaN,NaN,55.261,975.767
42.219,1014.771,-20.584,0.021,63.015,0.094,28.61,-80.6,NaN,NaN,NaN,55.381,976.974
42.719,981.014,-20.573,0.02,59.786,0.094,28.61,-80.6,NaN,NaN,NaN,55.502,978.181
42.72,980.946,-20.573,231.062,59.779,0.094,28.61,-80.6,NaN,NaN,NaN,55.502,978.183
42.724,980.661,-19.573,208.219,59.751,0.094,28.61,-80.6,NaN,NaN,NaN,55.503,978.193
42.729,980.361,-18.573,186.514,59.72,0.094,28.61,-80.6,NaN,NaN,NaN,55.504,978.204
42.734,980.043,-17.573,165.946,59.685,0.094,28.61,-80.6,NaN,NaN,NaN,55.505,978.215
42.74,979.705,-16.573,146.516,59.645,0.094,28.61,-80.6,NaN,NaN,NaN,55.506,978.228
42.747,979.345,-15.573,128.224,59.601,0.094,28.61,-80.6,NaN,NaN,NaN,55.507,978.24
42.755,978.96,-14.573,111.07,59.55,0.094,28.61,-80.6,NaN,NaN,NaN,55.509,978.254
42.764,978.544,-13.573,95.054,59.491,0.094,28.61,-80.6,NaN,NaN,NaN,55.51,978.269
42.774,978.093,-12.573,80.176,59.422,0.094,28.61,-80.6,NaN,NaN,NaN,55.512,978.285
42.787,977.599,-11.573,66.436,59.34,0.094,28.61,-80.6,NaN,NaN,NaN,55.514,978.303
42.802,977.052,-10.573,53.833,59.242,0.094,28.61,-80.6,NaN,NaN,NaN,55.516,978.322
42.821,976.438,-9.573,42.369,59.121,0.094,28.61,-80.6,NaN,NaN,NaN,55.518,978.344
42.844,975.735,-8.573,32.042,58.967,0.094,28.61,-80.6,NaN,NaN,NaN,55.52,978.369
42.875,974.909,-7.573,22.853,58.764,0.094,28.61,-80.6,NaN,NaN,NaN,55.523,978.399
42.919,973.893,-6.573,14.803,58.48,0.094,28.61,-80.6,NaN,NaN,NaN,55.527,978.435
42.987,972.547,-5.574,7.89,58.043,0.094,28.61,-80.6,NaN,NaN,NaN,55.532,978.483
43.113,970.438,-4.574,2.121,57.228,0.094,28.61,-80.6,NaN,NaN,NaN,55.539,978.559
43.305,967.684,-4.166,0.091,55.973,0.094,28.61,-80.6,NaN,NaN,NaN,55.549,978.657
43.516,964.809,-4.147,0.007,54.563,0.094,28.61,-80.6,NaN,NaN,NaN,55.559,978.76
43.728,961.928,-4.146,-0.005,53.111,0.093,28.61,-80.6,NaN,NaN,NaN,55.57,978.863
43.94,959.046,-4.147,0.008,51.633,0.093,28.61,-80.6,NaN,NaN,NaN,55.58,978.966
44.152,956.166,-4.145,-0.006,50.186,0.093,28.61,-80.6,NaN,NaN,NaN,55.59,979.069
44.363,953.285,-4.146,0.011,48.776,0.093,28.61,-80.6,NaN,NaN,NaN,55.6,979.172
44.575,950.405,-4.144,-0.001,47.342,0.093,28.61,-80.6,NaN,NaN,NaN,55.611,979.275
44.787,947.525,-4.144,-0.005,45.843,0.093,28.61,-80.6,NaN,NaN,NaN,55.621,979.378
44.999,944.645,-4.145,-0.001,44.331,0.093,28.61,-80.6,NaN,NaN,NaN,55.631,979.481
45.211,941.765,-4.146,-0.001,42.851,0.093,28.61,-80.6,NaN,NaN,NaN,55.642,979.584
45.422,938.885,-4.146,0.001,41.382,0.093,28.61,-80.6,NaN,NaN,NaN,55.652,979.687
45.634,936.006,-4.145,0.001,39.908,0.093,28.61,-80.6,NaN,NaN,NaN,55.662,979.79
45.846,933.127,-4.145,0.028,38.432,0.093,28.61,-80.6,NaN,NaN,NaN,55.672,979.893
46.057,930.251,-4.139,-0.017,37.013,0.093,28.61,-80.6,NaN,NaN,NaN,55.683,979.995
46.269,927.371,-4.143,-0.005,35.676,0.093,28.61,-80.6,NaN,NaN,NaN,55.693,980.098
46.481,924.492,-4.144,0.012,34.387,0.093,28.61,-80.6,NaN,NaN,NaN,55.703,980.201
46.693,921.615,-4.142,-0.013,33.155,0.093,28.61,-80.6,NaN,NaN,NaN,55.713,980.304
46.904,918.736,-4.144,0.002,31.959,0.093,28.61,-80.6,NaN,NaN,NaN,55.724,980.407
47.116,915.859,-4.144,0.003,30.749,0.093,28.61,-80.6,NaN,NaN,NaN,55.734,980.51
47.328,912.982,-4.143,0.013,29.509,0.093,28.61,-80.6,NaN,NaN,NaN,55.744,980.613
47.539,910.106,-4.141,0.034,28.21,0.093,28.61,-80.6,NaN,NaN,NaN,55.754,980.716
47.751,907.231,-4.133,-0.047,26.797,0.093,28.61,-80.6,NaN,NaN,NaN,55.765,980.818
47.963,904.351,-4.143,0.005,25.303,0.093,28.61,-80.6,NaN,NaN,NaN,55.775,980.921
48.175,901.476,-4.142,0.001,23.827,0.093,28.61,-80.6,NaN,NaN,NaN,55.785,981.024
48.386,898.6,-4.142,0.001,22.395,0.093,28.61,-80.6,NaN,NaN,NaN,55.795,981.127
48.598,895.724,-4.142,-0.003,20.963,0.093,28.61,-80.6,NaN,NaN,NaN,55.806,981.23
48.81,892.848,-4.143,0.001,19.495,0.092,28.61,-80.6,NaN,NaN,NaN,55.816,981.333
49.021,889.973,-4.142,0.004,18.029,0.092,28.61,-80.6,NaN,NaN,NaN,55.826,981.435
49.233,887.098,-4.142,0.002,16.597,0.092,28.61,-80.6,NaN,NaN,NaN,55.836,981.538
49.444,884.223,-4.141,0.001,15.209,0.092,28.61,-80.6,NaN,NaN,NaN,55.847,981.641
49.656,881.349,-4.141,-0.005,13.872,0.092,28.61,-80.6,NaN,NaN,NaN,55.857,981.744
49.868,878.474,-4.142,0.001,12.552,0.092,28.61,-80.6,NaN,NaN,NaN,55.867,981.846
50.079,875.6,-4.142,0.003,11.232,0.092,28.61,-80.6,NaN,NaN,NaN,55.877,981.949
50.291,872.727,-4.141,0.003,9.903,0.092,28.61,-80.6,NaN,NaN,NaN,55.888,982.052
50.502,869.853,-4.141,-0,8.535,0.092,28.61,-80.6,NaN,NaN,NaN,55.898,982.155
50.714,866.98,-4.141,-0.002,7.164,0.092,28.61,-80.6,NaN,NaN,NaN,55.908,982.257
50.925,864.106,-4.141,0.021,5.811,0.092,28.61,-80.6,NaN,NaN,NaN,55.918,982.36
51.137,861.235,-4.137,0.01,4.412,0.092,28.61,-80.6,NaN,NaN,NaN,55.929,982.463
51.348,858.363,-4.135,-0.025,2.911,0.092,28.61,-80.6,NaN,NaN,NaN,55.939,982.565
51.56,855.489,-4.14,0.001,1.338,0.092,28.61,-80.6,NaN,NaN,NaN,55.949,982.668
51.771,852.617,-4.14,-0.002,-0.233,0.092,28.61,-80.6,NaN,NaN,NaN,55.959,982.771
51.983,849.745,-4.14,0.027,-1.792,0.092,28.61,-80.6,NaN,NaN,NaN,55.97,982.873
52.194,846.875,-4.134,-0.026,-3.413,0.092,28.61,-80.6,NaN,NaN,NaN,55.98,982.976
52.406,844.002,-4.14,0.012,-5.086,0.092,28.61,-80.6,NaN,NaN,NaN,55.99,983.079
52.617,841.131,-4.137,-0.002,-6.717,0.092,28.61,-80.6,NaN,NaN,NaN,56,983.181
52.829,838.26,-4.138,-0.006,-8.284,0.092,28.61,-80.6,NaN,NaN,NaN,56.011,983.284
53.04,835.389,-4.139,0.018,-9.832,0.092,28.61,-80.6,NaN,NaN,NaN,56.021,983.387
53.252,832.52,-4.135,-0.007,-11.439,0.092,28.61,-80.6,NaN,NaN,NaN,56.031,983.489
53.463,829.649,-4.137,0.024,-13.057,0.092,28.61,-80.6,NaN,NaN,NaN,56.041,983.592
53.675,826.781,-4.132,-0.03,-14.58,0.091,28.61,-80.6,NaN,NaN,NaN,56.052,983.694
53.886,823.909,-4.138,-0.002,-16.027,0.091,28.61,-80.6,NaN,NaN,NaN,56.062,983.797
54.098,821.04,-4.138,0.003,-17.455,0.091,28.61,-80.6,NaN,NaN,NaN,56.072,983.9
54.309,818.171,-4.138,0.008,-18.868,0.091,28.61,-80.6,NaN,NaN,NaN,56.082,984.002
54.52,815.302,-4.136,-0.009,-20.237,0.091,28.61,-80.6,NaN,NaN,NaN,56.093,984.105
54.732,812.433,-4.138,0.007,-21.57,0.091,28.61,-80.6,NaN,NaN,NaN,56.103,984.207
54.943,809.565,-4.136,-0.005,-22.874,0.091,28.61,-80.6,NaN,NaN,NaN,56.113,984.31
55.154,806.696,-4.137,0.013,-24.16,0.091,28.61,-80.6,NaN,NaN,NaN,56.123,984.412
55.366,803.829,-4.135,-0.012,-25.491,0.091,28.61,-80.6,NaN,NaN,NaN,56.133,984.515
55.577,800.96,-4.137,0.007,-26.867,0.091,28.61,-80.6,NaN,NaN,NaN,56.144,984.617
55.788,798.093,-4.136,-0.005,-28.22,0.091,28.61,-80.6,NaN,NaN,NaN,56.154,984.72
56,795.226,-4.137,0.002,-29.543,0.091,28.61,-80.6,NaN,NaN,NaN,56.164,984.822
56.211,792.359,-4.136,0.024,-30.849,0.091,28.61,-80.6,NaN,NaN,NaN,56.174,984.925
56.422,789.494,-4.131,0.004,-32.194,0.091,28.61,-80.6,NaN,NaN,NaN,56.185,985.027
56.634,786.627,-4.131,-0.026,-33.644,0.091,28.61,-80.6,NaN,NaN,NaN,56.195,985.13
56.845,783.759,-4.136,0.001,-35.151,0.091,28.61,-80.6,NaN,NaN,NaN,56.205,985.232
57.056,780.893,-4.136,0.002,-36.652,0.091,28.61,-80.6,NaN,NaN,NaN,56.215,985.335
57.268,778.027,-4.135,-0.001,-38.159,0.091,28.61,-80.6,NaN,NaN,NaN,56.225,985.437
57.479,775.162,-4.136,0.001,-39.687,0.091,28.61,-80.6,NaN,NaN,NaN,56.236,985.54
57.69,772.296,-4.135,0.008,-41.224,0.091,28.61,-80.6,NaN,NaN,NaN,56.246,985.642
57.901,769.432,-4.134,0.003,-42.736,0.091,28.61,-80.6,NaN,NaN,NaN,56.256,985.744
58.112,766.567,-4.133,-0.009,-44.188,0.091,28.61,-80.6,NaN,NaN,NaN,56.266,985.847
58.324,763.702,-4.135,0.003,-45.604,0.091,28.61,-80.6,NaN,NaN,NaN,56.277,985.949
58.535,760.838,-4.134,-0,-47.032,0.091,28.61,-80.6,NaN,NaN,NaN,56.287,986.052
58.746,757.974,-4.134,-0,-48.49,0.09,28.61,-80.6,NaN,NaN,NaN,56.297,986.154
58.957,755.11,-4.134,0.006,-49.953,0.09,28.61,-80.6,NaN,NaN,NaN,56.307,986.256
59.168,752.246,-4.133,0.003,-51.386,0.09,28.61,-80.6,NaN,NaN,NaN,56.317,986.359
59.379,749.383,-4.133,0.003,-52.768,0.09,28.61,-80.6,NaN,NaN,NaN,56.328,986.461
59.591,746.52,-4.132,-0.002,-54.089,0.09,28.61,-80.6,NaN,NaN,NaN,56.338,986.563
59.802,743.657,-4.132,-0.002,-55.352,0.09,28.61,-80.6,NaN,NaN,NaN,56.348,986.666
60.013,740.794,-4.133,0,-56.608,0.09,28.61,-80.6,NaN,NaN,NaN,56.358,986.768
60.224,737.932,-4.133,0.012,-57.901,0.09,28.61,-80.6,NaN,NaN,NaN,56.368,986.87
60.435,735.07,-4.13,-0.012,-59.174,0.09,28.61,-80.6,NaN,NaN,NaN,56.379,986.973
60.646,732.207,-4.133,0,-60.422,0.09,28.61,-80.6,NaN,NaN,NaN,56.389,987.075
60.857,729.346,-4.133,-0.001,-61.694,0.09,28.61,-80.6,NaN,NaN,NaN,56.399,987.177
61.068,726.484,-4.133,0.001,-62.979,0.09,28.61,-80.6,NaN,NaN,NaN,56.409,987.28
61.279,723.623,-4.133,0.006,-64.27,0.09,28.61,-80.6,NaN,NaN,NaN,56.419,987.382
61.491,720.762,-4.131,0.008,-65.54,0.09,28.61,-80.6,NaN,NaN,NaN,56.43,987.484
61.702,717.902,-4.13,0.025,-66.822,0.09,28.61,-80.6,NaN,NaN,NaN,56.44,987.586
61.913,715.043,-4.124,-0.026,-68.204,0.09,28.61,-80.6,NaN,NaN,NaN,56.45,987.689
62.124,712.181,-4.13,-0.009,-69.618,0.09,28.61,-80.6,NaN,NaN,NaN,56.46,987.791
62.335,709.32,-4.132,0.006,-70.999,0.09,28.61,-80.6,NaN,NaN,NaN,56.47,987.893
62.546,706.461,-4.131,-0.004,-72.361,0.09,28.61,-80.6,NaN,NaN,NaN,56.481,987.995
62.757,703.601,-4.131,0.009,-73.707,0.09,28.61,-80.6,NaN,NaN,NaN,56.491,988.098
62.968,700.742,-4.129,-0.008,-75.029,0.09,28.61,-80.6,NaN,NaN,NaN,56.501,988.2
63.179,697.883,-4.131,0.006,-76.324,0.09,28.61,-80.6,NaN,NaN,NaN,56.511,988.302
63.39,695.024,-4.13,-0.003,-77.642,0.09,28.61,-80.6,NaN,NaN,NaN,56.521,988.404
63.601,692.165,-4.13,0.005,-78.994,0.09,28.61,-80.6,NaN,NaN,NaN,56.532,988.507
63.812,689.307,-4.129,-0.001,-80.332,0.09,28.61,-80.6,NaN,NaN,NaN,56.542,988.609
64.023,686.449,-4.13,-0.002,-81.629,0.09,28.61,-80.6,NaN,NaN,NaN,56.552,988.711
64.234,683.591,-4.13,0.002,-82.91,0.089,28.61,-80.6,NaN,NaN,NaN,56.562,988.813
64.445,680.733,-4.13,0.013,-84.205,0.089,28.61,-80.6,NaN,NaN,NaN,56.572,988.915
64.656,677.877,-4.127,-0.012,-85.547,0.089,28.61,-80.6,NaN,NaN,NaN,56.583,989.017
64.867,675.019,-4.13,0.003,-86.937,0.089,28.61,-80.6,NaN,NaN,NaN,56.593,989.119
65.078,672.162,-4.129,-0.002,-88.351,0.089,28.61,-80.6,NaN,NaN,NaN,56.603,989.222
65.289,669.305,-4.129,0.001,-89.782,0.089,28.61,-80.6,NaN,NaN,NaN,56.613,989.324
65.499,666.449,-4.129,0.001,-91.208,0.089,28.61,-80.6,NaN,NaN,NaN,56.623,989.426
65.71,663.592,-4.129,0.016,-92.638,0.089,28.61,-80.6,NaN,NaN,NaN,56.634,989.528
65.921,660.738,-4.126,-0.011,-94.036,0.089,28.61,-80.6,NaN,NaN,NaN,56.644,989.63
66.132,657.881,-4.128,0.001,-95.374,0.089,28.61,-80.6,NaN,NaN,NaN,56.654,989.732
66.343,655.026,-4.128,0.023,-96.712,0.089,28.61,-80.6,NaN,NaN,NaN,56.664,989.834
66.554,652.172,-4.123,-0.02,-98.122,0.089,28.61,-80.6,NaN,NaN,NaN,56.674,989.936
66.765,649.315,-4.127,0.015,-99.609,0.089,28.61,-80.6,NaN,NaN,NaN,56.684,990.038
66.976,646.462,-4.124,-0.017,-101.072,0.089,28.61,-80.6,NaN,NaN,NaN,56.695,990.14
67.187,643.606,-4.127,-0.001,-102.474,0.089,28.61,-80.6,NaN,NaN,NaN,56.705,990.242
67.397,640.751,-4.127,0,-103.867,0.089,28.61,-80.6,NaN,NaN,NaN,56.715,990.344
67.608,637.897,-4.127,0.001,-105.266,0.089,28.61,-80.6,NaN,NaN,NaN,56.725,990.446
67.819,635.044,-4.127,0.001,-106.67,0.089,28.61,-80.6,NaN,NaN,NaN,56.735,990.549
68.03,632.19,-4.127,0.004,-108.095,0.089,28.61,-80.6,NaN,NaN,NaN,56.746,990.651
68.24,629.337,-4.126,-0.003,-109.51,0.089,28.61,-80.6,NaN,NaN,NaN,56.756,990.753
68.451,626.483,-4.127,0.001,-110.91,0.089,28.61,-80.6,NaN,NaN,NaN,56.766,990.855
68.662,623.631,-4.126,0.012,-112.322,0.089,28.61,-80.6,NaN,NaN,NaN,56.776,990.956
68.873,620.779,-4.124,-0.009,-113.705,0.089,28.61,-80.6,NaN,NaN,NaN,56.786,991.058
69.084,617.926,-4.126,0.004,-115.067,0.089,28.61,-80.6,NaN,NaN,NaN,56.796,991.16
69.294,615.074,-4.125,0.002,-116.463,0.088,28.61,-80.6,NaN,NaN,NaN,56.807,991.262
69.505,612.222,-4.125,0.015,-117.858,0.088,28.61,-80.6,NaN,NaN,NaN,56.817,991.364
69.716,609.371,-4.122,-0.014,-119.182,0.088,28.61,-80.6,NaN,NaN,NaN,56.827,991.466
69.927,606.519,-4.125,-0.001,-120.44,0.088,28.61,-80.6,NaN,NaN,NaN,56.837,991.568
70.137,603.667,-4.125,-0.002,-121.693,0.088,28.61,-80.6,NaN,NaN,NaN,56.847,991.67
70.348,600.816,-4.125,0.001,-122.967,0.088,28.61,-80.6,NaN,NaN,NaN,56.857,991.772
70.559,597.965,-4.125,0.002,-124.237,0.088,28.61,-80.6,NaN,NaN,NaN,56.868,991.874
70.769,595.115,-4.124,0.001,-125.515,0.088,28.61,-80.6,NaN,NaN,NaN,56.878,991.976
70.98,592.265,-4.124,0.016,-126.79,0.088,28.61,-80.6,NaN,NaN,NaN,56.888,992.078
71.19,589.416,-4.121,-0.004,-128.007,0.088,28.61,-80.6,NaN,NaN,NaN,56.898,992.18
71.401,586.566,-4.122,-0.001,-129.145,0.088,28.61,-80.6,NaN,NaN,NaN,56.908,992.281
71.612,583.716,-4.122,-0.009,-130.212,0.088,28.61,-80.6,NaN,NaN,NaN,56.918,992.383
71.823,580.866,-4.124,0.029,-131.255,0.088,28.61,-80.6,NaN,NaN,NaN,56.929,992.485
72.033,578.019,-4.118,-0.028,-132.361,0.088,28.61,-80.6,NaN,NaN,NaN,56.939,992.587
72.244,575.168,-4.124,0.014,-133.533,0.088,28.61,-80.6,NaN,NaN,NaN,56.949,992.689
72.455,572.32,-4.121,-0.001,-134.752,0.088,28.61,-80.6,NaN,NaN,NaN,56.959,992.791
72.665,569.472,-4.121,-0.011,-136.044,0.088,28.61,-80.6,NaN,NaN,NaN,56.969,992.893
72.876,566.623,-4.123,0.005,-137.38,0.088,28.61,-80.6,NaN,NaN,NaN,56.979,992.994
73.087,563.775,-4.122,0.004,-138.699,0.088,28.61,-80.6,NaN,NaN,NaN,56.989,993.096
73.297,560.928,-4.121,-0.003,-139.968,0.088,28.61,-80.6,NaN,NaN,NaN,57,993.198
73.508,558.08,-4.122,-0.001,-141.189,0.088,28.61,-80.6,NaN,NaN,NaN,57.01,993.3
73.718,555.233,-4.122,-0,-142.378,0.088,28.61,-80.6,NaN,NaN,NaN,57.02,993.402
74.218,548.471,-4.122,0.069,-145.217,0.088,28.61,-80.6,NaN,NaN,NaN,57.044,993.643
74.429,545.629,-4.108,-0.066,-146.514,0.088,28.61,-80.6,NaN,NaN,NaN,57.054,993.745
74.64,542.778,-4.122,0.014,-147.9,0.088,28.61,-80.6,NaN,NaN,NaN,57.064,993.847
74.85,539.933,-4.119,-0.012,-149.246,0.088,28.61,-80.6,NaN,NaN,NaN,57.075,993.949
75.061,537.087,-4.121,0.001,-150.55,0.087,28.61,-80.6,NaN,NaN,NaN,57.085,994.05
75.272,534.241,-4.121,0.007,-151.849,0.087,28.61,-80.6,NaN,NaN,NaN,57.095,994.152
75.482,531.396,-4.12,0.008,-153.177,0.087,28.61,-80.6,NaN,NaN,NaN,57.105,994.254
75.692,528.552,-4.118,-0.008,-154.566,0.087,28.61,-80.6,NaN,NaN,NaN,57.115,994.355
75.903,525.706,-4.12,-0.003,-156.014,0.087,28.61,-80.6,NaN,NaN,NaN,57.125,994.457
76.113,522.862,-4.12,0.008,-157.473,0.087,28.61,-80.6,NaN,NaN,NaN,57.135,994.559
76.324,520.018,-4.119,0.001,-158.952,0.087,28.61,-80.6,NaN,NaN,NaN,57.146,994.66
76.534,517.174,-4.119,-0.003,-160.43,0.087,28.61,-80.601,NaN,NaN,NaN,57.156,994.762
76.745,514.33,-4.119,0.007,-161.901,0.087,28.61,-80.601,NaN,NaN,NaN,57.166,994.864
76.955,511.487,-4.118,-0.006,-163.36,0.087,28.61,-80.601,NaN,NaN,NaN,57.176,994.965
77.166,508.643,-4.119,-0.003,-164.767,0.087,28.61,-80.601,NaN,NaN,NaN,57.186,995.067
77.376,505.799,-4.119,0.003,-166.157,0.087,28.61,-80.601,NaN,NaN,NaN,57.196,995.169
77.586,502.957,-4.119,-0,-167.533,0.087,28.61,-80.601,NaN,NaN,NaN,57.206,995.27
77.797,500.114,-4.119,-0.001,-168.88,0.087,28.61,-80.601,NaN,NaN,NaN,57.217,995.372
78.007,497.271,-4.119,0.01,-170.21,0.087,28.61,-80.601,NaN,NaN,NaN,57.227,995.474
78.217,494.43,-4.117,-0.009,-171.505,0.087,28.61,-80.601,NaN,NaN,NaN,57.237,995.575
78.428,491.587,-4.119,0.008,-172.769,0.087,28.61,-80.601,NaN,NaN,NaN,57.247,995.677
78.638,488.746,-4.117,0.002,-174.004,0.087,28.61,-80.601,NaN,NaN,NaN,57.257,995.778
78.849,485.905,-4.117,-0.007,-175.183,0.087,28.61,-80.601,NaN,NaN,NaN,57.267,995.88
79.059,483.063,-4.118,0.008,-176.329,0.087,28.61,-80.601,NaN,NaN,NaN,57.277,995.981
79.269,480.223,-4.116,0.001,-177.498,0.087,28.61,-80.601,NaN,NaN,NaN,57.287,996.083
79.48,477.382,-4.116,0.001,-178.723,0.087,28.61,-80.601,NaN,NaN,NaN,57.298,996.185
79.69,474.541,-4.116,-0.006,-180.007,0.087,28.61,-80.601,NaN,NaN,NaN,57.308,996.286
79.9,471.7,-4.117,-0,-181.329,0.087,28.61,-80.601,NaN,NaN,NaN,57.318,996.388
80.11,468.86,-4.117,0.018,-182.659,0.087,28.61,-80.601,NaN,NaN,NaN,57.328,996.489
80.321,466.022,-4.113,-0.016,-184.032,0.086,28.61,-80.601,NaN,NaN,NaN,57.338,996.591
80.531,463.181,-4.117,-0,-185.459,0.086,28.61,-80.601,NaN,NaN,NaN,57.348,996.692
81.031,456.428,-4.117,0.018,-188.896,0.086,28.61,-80.601,NaN,NaN,NaN,57.372,996.934
81.241,453.59,-4.113,-0.015,-190.311,0.086,28.61,-80.601,NaN,NaN,NaN,57.382,997.035
81.452,450.75,-4.116,0.007,-191.681,0.086,28.61,-80.601,NaN,NaN,NaN,57.393,997.137
81.662,447.913,-4.115,-0.005,-193.071,0.086,28.61,-80.601,NaN,NaN,NaN,57.403,997.238
81.872,445.074,-4.116,0.006,-194.495,0.086,28.61,-80.601,NaN,NaN,NaN,57.413,997.34
82.082,442.236,-4.115,-0.005,-195.903,0.086,28.61,-80.601,NaN,NaN,NaN,57.423,997.441
82.292,439.398,-4.116,0.004,-197.29,0.086,28.61,-80.601,NaN,NaN,NaN,57.433,997.542
82.503,436.561,-4.115,-0.002,-198.66,0.086,28.61,-80.601,NaN,NaN,NaN,57.443,997.644
82.713,433.724,-4.115,0.001,-200.014,0.086,28.61,-80.601,NaN,NaN,NaN,57.453,997.745
82.923,430.887,-4.115,0.001,-201.376,0.086,28.61,-80.601,NaN,NaN,NaN,57.463,997.847
83.133,428.05,-4.115,0.003,-202.739,0.086,28.61,-80.601,NaN,NaN,NaN,57.474,997.948
83.343,425.214,-4.114,0.014,-204.114,0.086,28.61,-80.601,NaN,NaN,NaN,57.484,998.049
83.553,422.379,-4.111,-0.014,-205.545,0.086,28.61,-80.601,NaN,NaN,NaN,57.494,998.151
83.764,419.542,-4.114,0.002,-207.009,0.086,28.61,-80.601,NaN,NaN,NaN,57.504,998.252
83.974,416.706,-4.114,0.017,-208.453,0.086,28.61,-80.601,NaN,NaN,NaN,57.514,998.354
84.184,413.871,-4.11,-0.011,-209.844,0.086,28.61,-80.601,NaN,NaN,NaN,57.524,998.455
84.394,411.035,-4.113,0.004,-211.216,0.086,28.61,-80.601,NaN,NaN,NaN,57.534,998.556
84.604,408.2,-4.112,0.004,-212.581,0.086,28.61,-80.601,NaN,NaN,NaN,57.544,998.658
84.814,405.366,-4.111,-0.003,-213.883,0.086,28.61,-80.601,NaN,NaN,NaN,57.554,998.759
85.024,402.531,-4.112,0.005,-215.124,0.086,28.61,-80.601,NaN,NaN,NaN,57.565,998.86
85.234,399.697,-4.111,-0.011,-216.302,0.086,28.61,-80.601,NaN,NaN,NaN,57.575,998.962
85.445,396.862,-4.113,0.001,-217.451,0.086,28.61,-80.601,NaN,NaN,NaN,57.585,999.063
85.655,394.028,-4.113,0,-218.611,0.085,28.61,-80.601,NaN,NaN,NaN,57.595,999.164
85.865,391.194,-4.113,0.007,-219.784,0.085,28.61,-80.601,NaN,NaN,NaN,57.605,999.266
86.075,388.361,-4.111,0.013,-220.985,0.085,28.61,-80.601,NaN,NaN,NaN,57.615,999.367
86.285,385.529,-4.108,-0.003,-222.255,0.085,28.61,-80.601,NaN,NaN,NaN,57.625,999.468
86.495,382.695,-4.109,-0.013,-223.608,0.085,28.61,-80.601,NaN,NaN,NaN,57.635,999.569
86.705,379.862,-4.112,0.006,-224.994,0.085,28.61,-80.601,NaN,NaN,NaN,57.645,999.671
86.915,377.03,-4.111,-0.004,-226.351,0.085,28.61,-80.601,NaN,NaN,NaN,57.655,999.772
87.125,374.197,-4.112,0.001,-227.687,0.085,28.61,-80.601,NaN,NaN,NaN,57.666,999.873
87.335,371.365,-4.111,0.022,-229.017,0.085,28.61,-80.601,NaN,NaN,NaN,57.676,999.974
87.545,368.534,-4.107,-0.009,-230.388,0.085,28.61,-80.601,NaN,NaN,NaN,57.686,1000.076
87.755,365.702,-4.109,-0.01,-231.842,0.085,28.61,-80.601,NaN,NaN,NaN,57.696,1000.177
87.965,362.87,-4.111,0.001,-233.32,0.085,28.61,-80.601,NaN,NaN,NaN,57.706,1000.278
88.175,360.039,-4.111,0.002,-234.799,0.085,28.61,-80.601,NaN,NaN,NaN,57.716,1000.379
88.385,357.208,-4.11,0.003,-236.303,0.085,28.61,-80.601,NaN,NaN,NaN,57.726,1000.481
88.595,354.378,-4.11,-0.002,-237.8,0.085,28.61,-80.601,NaN,NaN,NaN,57.736,1000.582
88.805,351.547,-4.11,0.002,-239.265,0.085,28.61,-80.601,NaN,NaN,NaN,57.746,1000.683
89.015,348.717,-4.11,0.016,-240.701,0.085,28.61,-80.601,NaN,NaN,NaN,57.756,1000.784
89.225,345.888,-4.106,-0.015,-242.076,0.085,28.61,-80.601,NaN,NaN,NaN,57.767,1000.885
89.435,343.057,-4.109,0,-243.393,0.085,28.61,-80.601,NaN,NaN,NaN,57.777,1000.986
89.644,340.227,-4.109,0.007,-244.68,0.085,28.61,-80.601,NaN,NaN,NaN,57.787,1001.088
89.854,337.399,-4.108,-0.005,-245.924,0.085,28.61,-80.601,NaN,NaN,NaN,57.797,1001.189
90.064,334.569,-4.109,0,-247.123,0.085,28.61,-80.601,NaN,NaN,NaN,57.807,1001.29
90.274,331.74,-4.109,-0.001,-248.32,0.085,28.61,-80.601,NaN,NaN,NaN,57.817,1001.391
90.484,328.912,-4.109,0.003,-249.526,0.085,28.61,-80.601,NaN,NaN,NaN,57.827,1001.492
90.694,326.083,-4.108,0.008,-250.745,0.085,28.61,-80.601,NaN,NaN,NaN,57.837,1001.593
90.904,323.256,-4.107,0.009,-252.012,0.084,28.61,-80.601,NaN,NaN,NaN,57.847,1001.694
91.113,320.428,-4.105,-0.016,-253.354,0.084,28.61,-80.601,NaN,NaN,NaN,57.857,1001.795
91.323,317.599,-4.108,0.002,-254.752,0.084,28.61,-80.601,NaN,NaN,NaN,57.867,1001.896
91.533,314.772,-4.108,-0.002,-256.175,0.084,28.61,-80.601,NaN,NaN,NaN,57.877,1001.998
91.743,311.945,-4.108,0.001,-257.613,0.084,28.61,-80.601,NaN,NaN,NaN,57.888,1002.099
91.953,309.118,-4.108,0.014,-259.057,0.084,28.61,-80.601,NaN,NaN,NaN,57.898,1002.2
92.163,306.292,-4.105,-0.009,-260.472,0.084,28.61,-80.601,NaN,NaN,NaN,57.908,1002.301
92.372,303.465,-4.107,0.03,-261.868,0.084,28.61,-80.601,NaN,NaN,NaN,57.918,1002.402
92.582,300.64,-4.101,-0.026,-263.223,0.084,28.61,-80.601,NaN,NaN,NaN,57.928,1002.503
92.792,297.813,-4.106,-0.001,-264.498,0.084,28.61,-80.601,NaN,NaN,NaN,57.938,1002.604
93.002,294.987,-4.106,0.047,-265.767,0.084,28.61,-80.601,NaN,NaN,NaN,57.948,1002.705
93.212,292.164,-4.096,-0.046,-267.129,0.084,28.61,-80.601,NaN,NaN,NaN,57.958,1002.806
93.422,289.335,-4.106,-0.002,-268.585,0.084,28.61,-80.601,NaN,NaN,NaN,57.968,1002.907
93.632,286.51,-4.106,0.004,-270.05,0.084,28.61,-80.601,NaN,NaN,NaN,57.978,1003.008
93.841,283.685,-4.106,0.005,-271.492,0.084,28.61,-80.601,NaN,NaN,NaN,57.988,1003.109
94.051,280.861,-4.105,-0.006,-272.889,0.084,28.61,-80.601,NaN,NaN,NaN,57.998,1003.21
94.261,278.036,-4.106,0.008,-274.251,0.084,28.61,-80.601,NaN,NaN,NaN,58.008,1003.311
94.47,275.212,-4.104,0.003,-275.578,0.084,28.61,-80.601,NaN,NaN,NaN,58.019,1003.412
94.68,272.388,-4.104,0.007,-276.847,0.084,28.61,-80.601,NaN,NaN,NaN,58.029,1003.513
94.89,269.565,-4.102,-0.015,-278.046,0.084,28.61,-80.601,NaN,NaN,NaN,58.039,1003.614
95.1,266.74,-4.105,0.006,-279.206,0.084,28.61,-80.601,NaN,NaN,NaN,58.049,1003.715
95.309,263.917,-4.104,-0.004,-280.344,0.084,28.61,-80.601,NaN,NaN,NaN,58.059,1003.815
95.519,261.094,-4.105,0.002,-281.467,0.084,28.61,-80.601,NaN,NaN,NaN,58.069,1003.916
95.729,258.271,-4.105,0.026,-282.61,0.084,28.61,-80.601,NaN,NaN,NaN,58.079,1004.017
95.938,255.45,-4.099,-0.019,-283.816,0.084,28.61,-80.601,NaN,NaN,NaN,58.089,1004.118
96.148,252.627,-4.103,0.025,-285.102,0.084,28.61,-80.601,NaN,NaN,NaN,58.099,1004.219
96.358,249.806,-4.098,-0.027,-286.469,0.083,28.61,-80.601,NaN,NaN,NaN,58.109,1004.32
96.568,246.982,-4.104,0.004,-287.877,0.083,28.61,-80.601,NaN,NaN,NaN,58.119,1004.421
96.777,244.161,-4.103,-0.005,-289.241,0.083,28.61,-80.601,NaN,NaN,NaN,58.129,1004.522
96.987,241.339,-4.104,0.027,-290.58,0.083,28.61,-80.601,NaN,NaN,NaN,58.139,1004.623
97.196,238.519,-4.098,-0.023,-291.866,0.083,28.61,-80.601,NaN,NaN,NaN,58.149,1004.723
97.406,235.697,-4.103,-0.002,-293.087,0.083,28.61,-80.601,NaN,NaN,NaN,58.159,1004.824
97.616,232.876,-4.103,0.001,-294.292,0.083,28.61,-80.601,NaN,NaN,NaN,58.17,1004.925
97.825,230.055,-4.103,0.001,-295.499,0.083,28.61,-80.601,NaN,NaN,NaN,58.18,1005.026
98.035,227.235,-4.103,0.001,-296.71,0.083,28.61,-80.601,NaN,NaN,NaN,58.19,1005.127
98.244,224.415,-4.103,0.011,-297.921,0.083,28.61,-80.601,NaN,NaN,NaN,58.2,1005.228
98.454,221.596,-4.1,0.001,-299.159,0.083,28.61,-80.601,NaN,NaN,NaN,58.21,1005.328
98.663,218.776,-4.1,-0.006,-300.465,0.083,28.61,-80.601,NaN,NaN,NaN,58.22,1005.429
98.873,215.956,-4.102,-0.003,-301.825,0.083,28.61,-80.601,NaN,NaN,NaN,58.23,1005.53
99.082,213.136,-4.102,0.011,-303.207,0.083,28.61,-80.601,NaN,NaN,NaN,58.24,1005.631
99.292,210.318,-4.1,-0.01,-304.557,0.083,28.61,-80.601,NaN,NaN,NaN,58.25,1005.732
99.502,207.499,-4.102,0.002,-305.877,0.083,28.61,-80.601,NaN,NaN,NaN,58.26,1005.832
99.711,204.68,-4.102,0.012,-307.208,0.083,28.61,-80.601,NaN,NaN,NaN,58.27,1005.933
99.92,201.863,-4.099,-0.001,-308.585,0.083,28.61,-80.601,NaN,NaN,NaN,58.28,1006.034
100.13,199.045,-4.099,0.004,-309.964,0.083,28.61,-80.601,NaN,NaN,NaN,58.29,1006.135
100.339,196.227,-4.098,-0.013,-311.348,0.083,28.61,-80.601,NaN,NaN,NaN,58.3,1006.235
100.549,193.408,-4.101,0.001,-312.772,0.083,28.61,-80.601,NaN,NaN,NaN,58.31,1006.336
100.758,190.591,-4.101,0.003,-314.187,0.083,28.61,-80.601,NaN,NaN,NaN,58.32,1006.437
100.968,187.774,-4.1,0.002,-315.578,0.083,28.61,-80.601,NaN,NaN,NaN,58.33,1006.537
101.177,184.957,-4.1,0.009,-316.972,0.083,28.61,-80.601,NaN,NaN,NaN,58.34,1006.638
101.387,182.141,-4.098,0.008,-318.353,0.083,28.61,-80.601,NaN,NaN,NaN,58.35,1006.739
101.596,179.325,-4.096,-0.018,-319.654,0.083,28.61,-80.601,NaN,NaN,NaN,58.36,1006.839
101.806,176.507,-4.1,0.001,-320.915,0.082,28.61,-80.601,NaN,NaN,NaN,58.371,1006.94
102.015,173.691,-4.1,0.001,-322.183,0.082,28.61,-80.601,NaN,NaN,NaN,58.381,1007.041
102.224,170.876,-4.1,0.021,-323.45,0.082,28.61,-80.601,NaN,NaN,NaN,58.391,1007.142
102.434,168.062,-4.095,-0.011,-324.756,0.082,28.61,-80.601,NaN,NaN,NaN,58.401,1007.242
102.643,165.245,-4.098,-0.007,-326.139,0.082,28.61,-80.601,NaN,NaN,NaN,58.411,1007.343
102.853,162.43,-4.099,0,-327.542,0.082,28.61,-80.601,NaN,NaN,NaN,58.421,1007.443
103.062,159.615,-4.099,0.024,-328.936,0.082,28.61,-80.601,NaN,NaN,NaN,58.431,1007.544
103.271,156.802,-4.094,-0.022,-330.378,0.082,28.61,-80.601,NaN,NaN,NaN,58.441,1007.645
103.481,153.986,-4.099,0.001,-331.868,0.082,28.61,-80.601,NaN,NaN,NaN,58.451,1007.745
103.69,151.171,-4.099,0.002,-333.357,0.082,28.61,-80.601,NaN,NaN,NaN,58.461,1007.846
103.899,148.358,-4.098,0.008,-334.861,0.082,28.61,-80.601,NaN,NaN,NaN,58.471,1007.947
104.109,145.544,-4.097,0.017,-336.347,0.082,28.61,-80.601,NaN,NaN,NaN,58.481,1008.047
104.318,142.732,-4.093,-0.023,-337.755,0.082,28.61,-80.601,NaN,NaN,NaN,58.491,1008.148
104.528,139.917,-4.098,0.003,-339.124,0.082,28.61,-80.601,NaN,NaN,NaN,58.501,1008.248
104.737,137.104,-4.097,-0.002,-340.521,0.082,28.61,-80.601,NaN,NaN,NaN,58.511,1008.349
104.946,134.291,-4.097,0,-341.948,0.082,28.61,-80.601,NaN,NaN,NaN,58.521,1008.449
105.155,131.478,-4.097,0.003,-343.377,0.082,28.61,-80.601,NaN,NaN,NaN,58.531,1008.55
105.364,128.666,-4.097,0,-344.815,0.082,28.61,-80.601,NaN,NaN,NaN,58.541,1008.65
105.864,121.946,-4.097,0.014,-348.375,0.082,28.61,-80.601,NaN,NaN,NaN,58.565,1008.891
106.074,119.135,-4.094,-0.01,-349.86,0.082,28.61,-80.601,NaN,NaN,NaN,58.575,1008.991
106.283,116.323,-4.096,-0.002,-351.329,0.082,28.61,-80.601,NaN,NaN,NaN,58.585,1009.092
106.492,113.512,-4.096,-0.001,-352.804,0.082,28.61,-80.601,NaN,NaN,NaN,58.595,1009.192
106.701,110.701,-4.096,0.003,-354.261,0.082,28.61,-80.601,NaN,NaN,NaN,58.605,1009.293
106.911,107.89,-4.096,-0,-355.729,0.081,28.61,-80.601,NaN,NaN,NaN,58.615,1009.393
107.12,105.079,-4.096,0.001,-357.218,0.081,28.61,-80.601,NaN,NaN,NaN,58.625,1009.494
107.329,102.269,-4.096,0.015,-358.707,0.081,28.61,-80.601,NaN,NaN,NaN,58.635,1009.594
107.538,99.46,-4.093,-0.005,-360.151,0.081,28.61,-80.601,NaN,NaN,NaN,58.645,1009.695
107.747,96.65,-4.094,-0.007,-361.527,0.081,28.61,-80.601,NaN,NaN,NaN,58.655,1009.795
107.956,93.84,-4.095,0.001,-362.863,0.081,28.61,-80.601,NaN,NaN,NaN,58.665,1009.895
108.166,91.03,-4.095,0.001,-364.199,0.081,28.61,-80.601,NaN,NaN,NaN,58.675,1009.996
108.375,88.221,-4.095,0.003,-365.535,0.081,28.61,-80.601,NaN,NaN,NaN,58.685,1010.096
108.584,85.412,-4.094,-0.001,-366.878,0.081,28.61,-80.601,NaN,NaN,NaN,58.695,1010.197
108.793,82.603,-4.094,0.024,-368.228,0.081,28.61,-80.601,NaN,NaN,NaN,58.705,1010.297
109.002,79.797,-4.089,-0.015,-369.516,0.081,28.61,-80.601,NaN,NaN,NaN,58.715,1010.397
109.211,76.987,-4.092,-0.005,-370.785,0.081,28.61,-80.601,NaN,NaN,NaN,58.725,1010.498
109.42,74.179,-4.093,-0,-372.103,0.081,28.61,-80.601,NaN,NaN,NaN,58.735,1010.598
109.92,67.464,-4.093,0.021,-375.206,0.081,28.61,-80.601,NaN,NaN,NaN,58.759,1010.838
110.129,64.658,-4.089,-0.02,-376.42,0.081,28.61,-80.601,NaN,NaN,NaN,58.769,1010.939
110.339,61.849,-4.093,0.001,-377.591,0.081,28.61,-80.601,NaN,NaN,NaN,58.779,1011.039
110.548,59.043,-4.093,0.001,-378.761,0.081,28.61,-80.601,NaN,NaN,NaN,58.789,1011.139
110.757,56.236,-4.093,0.001,-379.929,0.081,28.61,-80.601,NaN,NaN,NaN,58.799,1011.24
110.966,53.43,-4.093,0.007,-381.1,0.081,28.61,-80.601,NaN,NaN,NaN,58.809,1011.34
111.175,50.624,-4.091,-0.006,-382.301,0.081,28.61,-80.601,NaN,NaN,NaN,58.819,1011.44
111.384,47.818,-4.093,0.001,-383.528,0.081,28.61,-80.601,NaN,NaN,NaN,58.829,1011.541
111.593,45.012,-4.092,0.002,-384.757,0.081,28.61,-80.601,NaN,NaN,NaN,58.839,1011.641
111.802,42.206,-4.092,0.002,-385.98,0.081,28.61,-80.601,NaN,NaN,NaN,58.849,1011.741
112.011,39.401,-4.092,0.041,-387.208,0.081,28.61,-80.601,NaN,NaN,NaN,58.859,1011.841
112.22,36.599,-4.083,-0.042,-388.517,0.081,28.61,-80.601,NaN,NaN,NaN,58.869,1011.942
