# Time (s),Altitude (ft),Vertical velocity (m/s),Vertical acceleration (m/s²),Position East of launch (ft),Position North of launch (ft),Latitude (° N),Longitude (° E),Roll rate (r/s),Pitch rate (r/s),Yaw rate (r/s),Air temperature (°F),Air pressure (mbar)
0,0,0,0,0,0,28.61,-80.6,0,0,0,59,1013.25
0.002,0,0.017,23.58,-0,0,28.61,-80.6,0,0,0,59,1013.25
0.004,0,0.098,56.957,-0,0,28.61,-80.6,0,0,0,59,1013.25
0.006,0.001,0.245,90.339,-0,0,28.61,-80.6,0,0,0,59,1013.25
0.008,0.004,0.459,123.726,-0,0,28.61,-80.6,0,0,0,59,1013.25
0.009,0.005,0.596,150.231,-0,0,28.61,-80.6,0,0,0,59,1013.25
0.01,0.008,0.751,159.784,-0,0,28.61,-80.6,0,0,0,59,1013.25
0.012,0.012,0.993,162.989,-0,0,28.61,-80.6,0,0,0,59,1013.25
0.013,0.017,1.24,166.194,-0,0,28.61,-80.6,0,0,0,59,1013.249
0.015,0.027,1.583,177.186,-0,0,28.61,-80.6,0,0,0,59,1013.249
0.017,0.038,1.939,178.874,-0,0,28.61,-80.6,0,0,0,59,1013.249
0.019,0.052,2.299,180.563,-0,0,28.61,-80.6,0,0,0,59,1013.248
0.021,0.068,2.662,182.252,-0,0,28.61,-80.6,0,0,0,59,1013.248
0.023,0.087,3.025,180.97,-0,0,28.61,-80.6,0,0,0,59,1013.247
0.025,0.108,3.385,179.687,-0,0,28.61,-80.6,0,0,0,59,1013.246
0.027,0.132,3.744,178.403,-0,0,28.61,-80.6,0,0,0,59,1013.245
0.029,0.157,4.099,177.118,-0,0,28.61,-80.6,0,0,0,58.999,1013.244
0.031,0.185,4.452,175.833,-0,0,28.61,-80.6,0,0,0,58.999,1013.243
0.033,0.216,4.802,174.547,-0,0,28.61,-80.6,0,0,0,58.999,1013.242
0.035,0.248,5.15,173.26,-0,0,28.61,-80.6,0,0,0,58.999,1013.241
0.036,0.265,5.323,172.617,-0,0,28.61,-80.6,0,0,0,58.999,1013.241
0.038,0.292,5.583,173.765,-0,0,28.61,-80.6,0,0,0,58.999,1013.24
0.04,0.33,5.932,175.296,-0,0,28.61,-80.6,0,0,0,58.999,1013.238
0.042,0.37,6.284,176.828,-0,0,28.61,-80.6,0,0,0,58.999,1013.237
0.044,0.413,6.639,178.36,-0,0,28.61,-80.6,0,0,0,58.999,1013.235
0.045,0.446,6.908,179.51,-0,0,28.61,-80.6,0,0,0,58.998,1013.234
0.047,0.492,7.266,178.837,-0,0,28.61,-80.6,0,0,0,58.998,1013.232
0.049,0.541,7.623,178.163,-0,0,28.61,-80.6,0,0,0,58.998,1013.231
0.051,0.592,7.979,177.489,-0,0,28.61,-80.6,0,0,0,58.998,1013.229
0.053,0.646,8.333,176.815,-0,0,28.61,-80.6,0,0,0,58.998,1013.227
0.055,0.702,8.686,176.14,-0,0,28.61,-80.6,0,0,0,58.997,1013.225
0.057,0.76,9.038,175.465,-0,0,28.61,-80.6,0,0,0,58.997,1013.223
0.059,0.82,9.392,178.519,-0,0,28.61,-80.6,0,0,0,58.997,1013.221
0.061,0.883,9.752,181.573,-0,0,28.61,-80.6,0,0,0,58.997,1013.218
0.063,0.948,10.113,180.07,-0,0,28.61,-80.6,0,0,0,58.997,1013.216
0.065,1.016,10.472,178.566,-0,0,28.61,-80.6,0,0,0,58.996,1013.214
0.067,1.086,10.828,177.062,-0,0,28.61,-80.6,0,0,0,58.996,1013.211
0.069,1.158,11.182,177.41,-0,0,28.61,-80.6,0,0,0,58.996,1013.209
0.071,1.233,11.537,177.759,-0,0,28.61,-80.6,0,0,0,58.996,1013.206
0.073,1.309,11.893,178.108,-0,0,28.61,-80.6,0,0,0,58.995,1013.203
0.075,1.389,12.25,178.456,-0,0,28.61,-80.6,0,0,0,58.995,1013.2
0.077,1.47,12.607,178.805,-0,0,28.61,-80.6,0,0,0,58.995,1013.197
0.079,1.554,12.965,179.153,-0,0,28.61,-80.6,0,0,0,58.994,1013.194
0.081,1.64,13.324,179.502,-0,0,28.61,-80.6,0,0,0,58.994,1013.191
0.083,1.729,13.683,179.85,-0,0,28.61,-80.6,0,0,0,58.994,1013.188
0.085,1.82,14.043,180.199,-0,0,28.61,-80.6,0,0,0,58.994,1013.185
0.087,1.913,14.404,180.547,-0,0,28.61,-80.6,0,0,0,58.993,1013.182
0.089,2.009,14.765,180.896,-0,0,28.61,-80.6,0,0,0,58.993,1013.178
0.091,2.107,15.127,181.244,-0,0,28.61,-80.6,0,0,0,58.992,1013.175
0.093,2.207,15.49,181.593,-0,0,28.61,-80.6,0,0,0,58.992,1013.171
0.095,2.31,15.854,181.941,-0,0,28.61,-80.6,0,0,0,58.992,1013.167
0.097,2.416,16.218,182.29,-0,0,28.61,-80.6,0,0,0,58.991,1013.164
0.099,2.523,16.583,182.638,-0,0,28.61,-80.6,0,0,0,58.991,1013.16
0.101,2.633,16.948,182.987,-0,0,28.61,-80.6,0,0,0,58.991,1013.156
0.103,2.746,17.314,182.402,-0,0,28.61,-80.6,0,0,0,58.99,1013.152
0.105,2.86,17.678,181.817,-0,0,28.61,-80.6,0,0,0,58.99,1013.148
0.107,2.978,18.041,181.232,-0,0,28.61,-80.6,0,0,0,58.989,1013.144
0.109,3.097,18.403,180.646,-0,0,28.61,-80.6,0,0,0,58.989,1013.139
0.111,3.219,18.764,180.06,-0,0,28.61,-80.6,0,0,0,58.989,1013.135
0.113,3.343,19.123,179.474,-0,0,28.61,-80.6,0,0,0,58.988,1013.13
0.116,3.534,19.66,178.593,-0,0,28.61,-80.6,0,0,-0,58.987,1013.124
0.121,3.83,20.466,179.372,-0,0,28.61,-80.6,0,0.001,-0,58.986,1013.113
0.127,4.297,21.68,180.539,-0.001,0,28.61,-80.6,0,0.001,0,58.985,1013.096
0.137,5.038,23.494,182.269,-0.001,0,28.61,-80.6,0,0.003,-0,58.982,1013.07
0.147,5.839,25.326,183.998,-0.002,0,28.61,-80.6,0,0.004,-0,58.979,1013.041
0.157,6.678,27.128,185.682,-0.002,0,28.61,-80.6,0,0.005,-0,58.976,1013.011
0.167,7.598,28.968,182.241,-0.003,0,28.61,-80.6,0,0.006,-0,58.973,1012.978
0.174,8.278,30.235,179.826,-0.004,0,28.61,-80.6,0,0.007,-0,58.97,1012.954
0.184,9.299,32.034,179.963,-0.005,0,28.61,-80.6,0,0.009,-0,58.967,1012.918
0.194,10.38,33.834,180.096,-0.007,0,28.61,-80.6,0,0.01,-0,58.963,1012.879
0.196,10.603,34.194,180.122,-0.007,0,28.61,-80.6,0,0.01,-0,58.962,1012.871
0.199,10.942,34.737,181.844,-0.007,0,28.61,-80.6,0,0.011,-0,58.961,1012.859
0.204,11.461,35.561,184.428,-0.008,0,28.61,-80.6,0,0.011,-0,58.959,1012.84
0.205,11.637,35.839,185.289,-0.008,0,28.61,-80.6,0,0.012,-0,58.959,1012.834
0.207,11.903,36.255,185.101,-0.009,0,28.61,-80.6,0,0.012,-0,58.958,1012.824
0.211,12.308,36.88,184.817,-0.009,0,28.61,-80.6,0,0.012,-0,58.956,1012.81
0.216,12.928,37.814,184.391,-0.01,0,28.61,-80.6,0,0.013,-0,58.954,1012.788
0.223,13.888,39.212,183.749,-0.011,0,28.61,-80.6,0,0.014,-0,58.95,1012.754
0.231,14.899,40.628,183.093,-0.012,0,28.61,-80.6,0,0.016,-0,58.947,1012.717
0.234,15.301,41.171,179.148,-0.013,0,28.61,-80.6,0,0.016,-0,58.945,1012.703
0.239,15.915,41.976,178.733,-0.013,0,28.61,-80.6,0,0.017,-0,58.943,1012.681
0.245,16.858,43.181,178.107,-0.014,0,28.61,-80.6,0,0.018,-0,58.94,1012.647
0.255,18.267,44.913,177.199,-0.016,0,28.61,-80.6,0,0.02,-0,58.935,1012.597
0.265,19.77,46.705,181.21,-0.017,0,28.61,-80.6,0,0.022,-0,58.929,1012.543
0.268,20.232,47.25,182.413,-0.017,0,28.61,-80.6,0,0.022,-0,58.928,1012.527
0.273,20.936,48.069,181.462,-0.017,0,28.61,-80.6,0,0.023,-0,58.925,1012.502
0.279,22.014,49.289,180.032,-0.018,0,28.61,-80.6,0,0.024,-0,58.921,1012.463
0.289,23.66,51.079,177.907,-0.018,0,28.61,-80.6,0,0.026,-0,58.916,1012.404
0.299,25.365,52.847,175.774,-0.017,0,28.61,-80.6,0,0.028,-0,58.91,1012.343
0.309,27.128,54.594,173.633,-0.016,0,28.61,-80.6,0,0.029,-0,58.903,1012.28
0.314,27.985,55.416,172.614,-0.016,0,28.61,-80.6,0,0.03,-0,58.9,1012.25
0.321,29.295,56.649,173.311,-0.014,0,28.61,-80.6,0,0.031,-0,58.896,1012.203
0.331,31.182,58.387,174.287,-0.011,0,28.61,-80.6,0,0.032,-0,58.889,1012.135
0.334,31.735,58.888,174.567,-0.01,0,28.61,-80.6,0,0.032,-0,58.887,1012.116
0.338,32.573,59.638,173.181,-0.009,0,28.61,-80.6,0,0.033,-0,58.884,1012.086
0.345,33.851,60.752,171.1,-0.006,0,28.61,-80.6,0,0.034,-0,58.879,1012.04
0.354,35.811,62.397,167.971,-0,0,28.61,-80.6,0,0.034,-0,58.872,1011.97
0.362,37.365,63.65,165.542,0.005,0,28.61,-80.6,0,0.035,-0,58.867,1011.914
0.372,39.481,65.302,164.807,0.013,0,28.61,-80.6,0,0.035,-0,58.859,1011.839
0.382,41.65,66.946,164.066,0.022,0,28.61,-80.6,0,0.036,-0,58.851,1011.761
0.386,42.533,67.602,163.768,0.027,0,28.61,-80.6,0,0.036,-0,58.848,1011.73
0.392,43.873,68.581,162.602,0.034,0,28.61,-80.6,0,0.036,-0,58.844,1011.682
0.401,45.92,70.036,160.847,0.046,0,28.61,-80.6,0,-0.036,-0,58.836,1011.608
0.411,48.244,71.621,156.133,0.061,0,28.61,-80.6,0,-0.035,-0,58.828,1011.525
0.421,50.619,73.159,151.411,0.078,0,28.61,-80.6,0,-0.035,-0,58.819,1011.44
0.426,51.825,73.91,149.047,0.088,0,28.61,-80.6,0,-0.034,-0,58.815,1011.397
0.433,53.658,75.021,147.139,0.103,0,28.61,-80.6,0,-0.033,-0,58.809,1011.332
0.443,56.143,76.48,144.591,0.126,0,28.61,-80.6,0,-0.032,-0,58.8,1011.243
0.445,56.52,76.696,144.208,0.129,0,28.61,-80.6,0,-0.031,-0,58.798,1011.23
0.447,57.087,77.02,143.386,0.135,0,28.61,-80.6,0,-0.031,-0,58.796,1011.209
0.451,57.943,77.502,142.154,0.143,0,28.61,-80.6,0,-0.03,-0,58.793,1011.179
0.456,59.236,78.217,140.305,0.157,0,28.61,-80.6,0,-0.029,-0,58.789,1011.132
0.463,61.198,79.271,137.529,0.178,0,28.61,-80.6,0,-0.027,-0,58.782,1011.062
0.473,63.821,80.628,133.871,0.208,0,28.61,-80.6,0,-0.025,-0,58.772,1010.969
0.483,66.488,81.949,130.209,0.241,0,28.61,-80.6,0,-0.022,-0,58.763,1010.873
0.493,69.121,83.197,126.649,0.276,0,28.61,-80.6,0,-0.019,-0,58.754,1010.779
0.503,71.871,84.463,126.606,0.314,0,28.61,-80.6,0,-0.016,-0,58.744,1010.681
0.505,72.426,84.716,126.598,0.323,0,28.61,-80.6,0,-0.015,-0,58.742,1010.661
0.508,73.262,85.098,127.884,0.335,0,28.61,-80.6,0,-0.014,-0,58.739,1010.631
0.511,74.101,85.484,129.17,0.347,0,28.61,-80.6,0,-0.013,-0,58.736,1010.601
0.516,75.368,86.063,128.316,0.367,0,28.61,-80.6,0,-0.012,-0,58.731,1010.556
0.519,76.359,86.511,127.652,0.382,0,28.61,-80.6,0,-0.011,-0,58.728,1010.52
0.524,77.854,87.156,117.875,0.406,0,28.61,-80.6,0,-0.009,-0,58.722,1010.467
0.532,80.118,88.026,103.208,0.443,0,28.61,-80.6,0,-0.006,-0,58.714,1010.386
0.535,80.949,88.315,97.853,0.457,0,28.61,-80.6,0,-0.005,-0,58.711,1010.356
0.539,82.202,88.71,85.485,0.479,0,28.61,-80.6,0,-0.003,-0,58.707,1010.311
0.545,83.861,89.15,69.174,0.508,0,28.61,-80.6,0,-0.001,-0,58.701,1010.252
0.551,85.62,89.483,41.622,0.539,0,28.61,-80.6,0,0.001,-0,58.695,1010.189
0.559,87.972,89.705,14.071,0.581,0,28.61,-80.6,0,0.004,-0,58.686,1010.105
0.565,89.738,89.743,-1.559,0.614,0,28.61,-80.6,0,0.006,-0,58.68,1010.042
0.572,91.799,89.699,-10.854,0.651,0,28.61,-80.6,0,0.009,-0,58.673,1009.968
0.579,93.858,89.609,-14.932,0.69,0,28.61,-80.6,0,0.011,-0,58.665,1009.895
0.589,96.795,89.46,-14.906,0.744,0,28.61,-80.6,0,0.014,-0,58.655,1009.79
0.599,99.728,89.311,-14.879,0.799,0,28.61,-80.6,0,0.017,-0,58.644,1009.685
0.609,102.656,89.162,-14.85,0.855,0,28.61,-80.6,0,0.02,-0,58.634,1009.58
0.619,105.578,89.014,-14.822,0.91,0,28.61,-80.6,0,0.022,-0,58.623,1009.476
0.629,108.496,88.866,-14.794,0.966,0,28.61,-80.6,0,0.024,-0,58.613,1009.371
0.639,111.41,88.718,-14.766,1.022,0,28.61,-80.6,0,0.025,-0,58.603,1009.267
0.649,114.318,88.571,-14.739,1.078,0,28.61,-80.6,0,0.026,-0,58.592,1009.163
0.659,117.221,88.423,-14.714,1.134,0,28.61,-80.6,0,0.026,-0,58.582,1009.06
0.669,120.12,88.276,-14.69,1.19,0,28.61,-80.6,0,-0.027,-0,58.572,1008.956
0.679,123.014,88.13,-14.667,1.246,0,28.61,-80.6,0,-0.026,-0,58.561,1008.853
0.689,125.903,87.983,-14.645,1.301,0,28.61,-80.6,0,-0.025,-0,58.551,1008.749
0.699,128.787,87.837,-14.624,1.357,0,28.61,-80.6,0,-0.024,-0,58.541,1008.646
0.709,131.666,87.691,-14.605,1.412,0,28.61,-80.6,0,-0.023,-0,58.53,1008.543
0.719,134.541,87.545,-14.586,1.467,0,28.61,-80.6,0,-0.021,-0,58.52,1008.44
0.729,137.411,87.399,-14.568,1.522,0,28.61,-80.6,0,-0.019,-0,58.51,1008.338
0.739,140.276,87.253,-14.55,1.576,0,28.61,-80.6,0,-0.017,-0,58.5,1008.235
0.749,143.136,87.108,-14.533,1.63,0,28.61,-80.6,0,-0.015,-0,58.49,1008.133
0.759,145.991,86.963,-14.516,1.684,0,28.61,-80.6,0,-0.012,-0,58.479,1008.031
0.769,148.842,86.818,-14.499,1.737,0,28.61,-80.6,0,-0.009,-0,58.469,1007.929
0.779,151.688,86.673,-14.483,1.79,0,28.61,-80.6,0,-0.007,-0,58.459,1007.827
0.789,154.529,86.528,-14.466,1.842,0,28.61,-80.6,0,-0.004,-0,58.449,1007.726
0.799,157.366,86.383,-14.45,1.894,0,28.61,-80.6,0,-0.001,-0,58.439,1007.624
0.809,160.198,86.239,-14.433,1.945,0,28.61,-80.6,0,0.002,-0,58.429,1007.523
0.819,163.025,86.095,-14.417,1.996,0,28.61,-80.6,0,0.005,-0,58.419,1007.422
0.829,165.847,85.951,-14.401,2.047,0,28.61,-80.6,0,0.008,-0,58.409,1007.321
0.839,168.664,85.807,-14.385,2.097,0,28.61,-80.6,0,0.011,-0,58.399,1007.221
0.849,171.477,85.663,-14.37,2.146,0,28.61,-80.6,0,0.013,-0,58.388,1007.12
0.859,174.285,85.519,-14.355,2.196,0,28.61,-80.6,0,0.016,-0,58.378,1007.02
0.869,177.089,85.376,-14.34,2.244,0,28.61,-80.6,0,0.018,-0,58.368,1006.919
0.879,179.887,85.232,-14.326,2.293,0,28.61,-80.6,0,0.02,-0,58.358,1006.819
0.889,182.681,85.089,-14.313,2.341,0,28.61,-80.6,0,0.021,-0,58.349,1006.72
0.899,185.471,84.946,-14.301,2.389,0,28.61,-80.6,0,0.022,-0,58.339,1006.62
0.909,188.255,84.803,-14.289,2.437,0,28.61,-80.6,0,0.023,-0,58.329,1006.52
0.919,191.035,84.66,-14.278,2.485,0,28.61,-80.6,0,0.023,-0,58.319,1006.421
0.929,193.81,84.518,-14.267,2.533,0,28.61,-80.6,0,-0.023,-0.001,58.309,1006.322
0.939,196.581,84.375,-14.258,2.58,0,28.61,-80.6,0,-0.023,-0,58.299,1006.223
0.949,199.347,84.232,-14.248,2.628,0,28.61,-80.6,0,-0.022,-0,58.289,1006.124
0.959,202.108,84.09,-14.238,2.675,0,28.61,-80.6,0,-0.021,-0,58.279,1006.025
0.969,204.864,83.948,-14.228,2.723,0,28.61,-80.6,0,-0.02,-0,58.269,1005.927
0.979,207.616,83.805,-14.217,2.771,0,28.61,-80.6,0,-0.019,-0,58.26,1005.828
0.989,210.364,83.663,-14.206,2.819,0,28.61,-80.6,0,-0.017,-0,58.25,1005.73
0.999,213.106,83.521,-14.195,2.867,0,28.61,-80.6,0,-0.016,-0,58.24,1005.632
1.009,215.844,83.379,-14.185,2.915,0,28.61,-80.6,0,-0.014,-0,58.23,1005.534
1.019,218.577,83.238,-14.175,2.963,0,28.61,-80.6,0,-0.012,-0,58.221,1005.436
1.029,221.306,83.096,-14.164,3.012,0,28.61,-80.6,0,-0.01,-0,58.211,1005.339
1.039,224.03,82.954,-14.152,3.061,0,28.61,-80.6,0,-0.007,-0,58.201,1005.241
1.049,226.749,82.813,-14.139,3.11,0,28.61,-80.6,0,-0.005,-0,58.191,1005.144
1.059,229.464,82.672,-14.123,3.159,0,28.61,-80.6,0,-0.003,-0,58.182,1005.047
1.069,232.174,82.53,-14.107,3.209,0,28.61,-80.6,0,-0,-0,58.172,1004.95
1.079,234.879,82.389,-14.089,3.259,0,28.61,-80.6,0,0.002,-0,58.162,1004.854
1.089,237.58,82.249,-14.071,3.309,0,28.61,-80.6,0,0.004,-0,58.153,1004.757
1.099,240.276,82.108,-14.052,3.359,0,28.61,-80.6,0,0.006,-0,58.143,1004.661
1.109,242.967,81.968,-14.034,3.41,0,28.61,-80.6,0,0.008,-0,58.134,1004.564
1.119,245.654,81.827,-14.015,3.46,0,28.61,-80.6,0,0.01,-0,58.124,1004.468
1.129,248.337,81.687,-13.996,3.511,0,28.61,-80.6,0,0.012,-0,58.114,1004.372
1.139,251.014,81.547,-13.977,3.562,0,28.61,-80.6,0,0.013,-0,58.105,1004.277
1.149,253.688,81.408,-13.957,3.613,0,28.61,-80.6,0,0.015,-0,58.095,1004.181
1.159,256.356,81.268,-13.936,3.664,0,28.61,-80.6,0,0.016,-0,58.086,1004.086
1.169,259.02,81.129,-13.914,3.716,0,28.61,-80.6,0,0.017,-0,58.076,1003.991
1.179,261.68,80.99,-13.893,3.767,0,28.61,-80.6,0,0.017,-0,58.067,1003.895
1.189,264.334,80.851,-13.872,3.818,0,28.61,-80.6,0,0.017,-0.001,58.057,1003.801
1.199,266.985,80.713,-13.853,3.869,0,28.61,-80.6,0,-0.017,-0,58.048,1003.706
1.209,269.631,80.574,-13.836,3.92,0,28.61,-80.6,0,-0.017,-0,58.038,1003.611
1.219,272.272,80.436,-13.82,3.971,0,28.61,-80.6,0,-0.016,-0,58.029,1003.517
1.229,274.908,80.298,-13.804,4.022,0,28.61,-80.6,0,-0.016,-0,58.02,1003.423
1.239,277.541,80.16,-13.788,4.073,0,28.61,-80.6,0,-0.015,-0,58.01,1003.328
1.249,280.168,80.022,-13.773,4.123,0,28.61,-80.6,0,-0.014,-0,58.001,1003.235
1.259,282.791,79.884,-13.757,4.174,0,28.61,-80.6,0,-0.014,-0,57.992,1003.141
1.269,285.41,79.747,-13.74,4.224,0,28.61,-80.6,0,-0.012,-0,57.982,1003.047
1.279,288.024,79.61,-13.725,4.274,0,28.61,-80.6,0,-0.011,-0,57.973,1002.954
1.289,290.634,79.472,-13.709,4.324,0,28.61,-80.6,0,-0.01,-0,57.964,1002.86
1.299,293.239,79.335,-13.694,4.373,0,28.61,-80.6,0,-0.008,-0,57.954,1002.767
1.309,295.84,79.199,-13.679,4.422,0,28.61,-80.6,0,-0.006,-0,57.945,1002.674
1.319,298.436,79.062,-13.665,4.471,0,28.61,-80.6,0,-0.005,-0,57.936,1002.582
1.329,301.027,78.925,-13.65,4.52,0,28.61,-80.6,0,-0.003,-0,57.926,1002.489
1.339,303.614,78.789,-13.636,4.568,0,28.61,-80.6,0,-0.001,-0,57.917,1002.396
1.349,306.197,78.652,-13.622,4.616,0,28.61,-80.6,0,0.001,-0,57.908,1002.304
1.359,308.775,78.516,-13.609,4.664,0,28.61,-80.6,0,0.003,-0,57.899,1002.212
1.369,311.349,78.38,-13.596,4.711,0,28.61,-80.6,0,0.005,-0,57.89,1002.12
1.379,313.918,78.244,-13.583,4.758,0,28.61,-80.6,0,0.007,-0,57.881,1002.028
1.389,316.483,78.109,-13.57,4.805,0,28.61,-80.6,0,0.008,-0,57.871,1001.936
1.399,319.044,77.973,-13.558,4.852,0,28.61,-80.6,0,0.01,-0,57.862,1001.845
1.409,321.6,77.838,-13.545,4.898,0,28.61,-80.6,0,0.011,-0,57.853,1001.753
1.419,324.151,77.702,-13.533,4.944,0,28.61,-80.6,0,0.012,-0,57.844,1001.662
1.429,326.698,77.567,-13.52,4.99,0,28.61,-80.6,0,0.013,-0,57.835,1001.571
1.439,329.241,77.432,-13.508,5.035,0,28.61,-80.6,0,0.014,-0,57.826,1001.48
1.449,331.779,77.297,-13.497,5.081,0,28.61,-80.6,0,0.015,-0,57.817,1001.39
1.459,334.313,77.162,-13.486,5.126,0,28.61,-80.6,0,0.016,-0,57.808,1001.299
1.469,336.842,77.027,-13.475,5.171,0,28.61,-80.6,0,0.016,-0,57.799,1001.209
1.479,339.367,76.892,-13.464,5.217,0,28.61,-80.6,0,0.017,-0,57.79,1001.118
1.489,341.888,76.758,-13.454,5.262,0,28.61,-80.6,0,-0.011,-0.012,57.781,1001.028
1.499,344.404,76.623,-13.444,5.307,0,28.61,-80.6,0,-0.017,-0,57.772,1000.938
1.509,346.915,76.489,-13.435,5.351,0,28.61,-80.6,0,-0.016,-0,57.763,1000.848
1.519,349.423,76.354,-13.426,5.396,0,28.61,-80.6,0,-0.016,-0,57.754,1000.759
1.529,351.925,76.22,-13.417,5.441,0,28.61,-80.6,0,-0.015,-0,57.745,1000.669
1.539,354.424,76.086,-13.408,5.486,0,28.61,-80.6,0,-0.014,-0,57.736,1000.58
1.549,356.918,75.952,-13.4,5.531,0,28.61,-80.6,0,-0.013,-0,57.727,1000.491
1.559,359.408,75.818,-13.39,5.576,0,28.61,-80.6,0,-0.012,-0,57.718,1000.402
1.569,361.893,75.684,-13.38,5.622,0,28.61,-80.6,0,-0.011,-0,57.709,1000.313
1.579,364.374,75.551,-13.369,5.667,0,28.61,-80.6,0,-0.009,-0,57.701,1000.224
1.589,366.85,75.417,-13.358,5.713,0.001,28.61,-80.6,0,-0.008,-0,57.692,1000.136
1.599,369.322,75.283,-13.347,5.758,0.001,28.61,-80.6,0,-0.006,-0,57.683,1000.047
1.609,371.79,75.15,-13.335,5.804,0.001,28.61,-80.6,0,-0.005,-0,57.674,999.959
1.619,374.254,75.017,-13.321,5.85,0.001,28.61,-80.6,0,-0.003,-0,57.665,999.871
1.629,376.713,74.884,-13.308,5.896,0.001,28.61,-80.6,0,-0.001,-0,57.657,999.783
1.639,379.167,74.751,-13.294,5.942,0.001,28.61,-80.6,0,0,-0,57.648,999.696
1.649,381.617,74.618,-13.28,5.989,0.001,28.61,-80.6,0,0.002,-0,57.639,999.608
1.659,384.063,74.485,-13.266,6.035,0.001,28.61,-80.6,0,0.003,-0,57.63,999.521
1.669,386.505,74.352,-13.251,6.082,0.001,28.61,-80.6,0,0.004,-0,57.622,999.433
1.679,388.942,74.22,-13.237,6.129,0.001,28.61,-80.6,0,0.006,-0,57.613,999.346
1.689,391.375,74.088,-13.222,6.176,0.001,28.61,-80.6,0,0.007,-0,57.604,999.259
1.699,393.804,73.956,-13.207,6.223,0.001,28.61,-80.6,0,0.008,-0,57.596,999.172
1.709,396.228,73.824,-13.193,6.27,0.001,28.61,-80.6,0,0.009,-0,57.587,999.086
1.719,398.648,73.692,-13.179,6.317,0.001,28.61,-80.6,0,0.01,-0,57.578,998.999
1.729,401.063,73.56,-13.165,6.364,0.001,28.61,-80.6,0,0.011,-0,57.57,998.913
1.739,403.474,73.428,-13.15,6.411,0.001,28.61,-80.6,0,0.012,-0,57.561,998.827
1.749,405.881,73.297,-13.136,6.458,0.001,28.61,-80.6,0,0.013,-0,57.553,998.741
1.759,408.284,73.166,-13.121,6.506,0.001,28.61,-80.6,0,0.013,-0,57.544,998.655
1.769,410.682,73.034,-13.106,6.553,0.001,28.61,-80.6,0,0.014,-0,57.535,998.569
1.779,413.076,72.904,-13.091,6.601,0.001,28.61,-80.6,0,0.014,-0,57.527,998.483
1.789,415.466,72.773,-13.076,6.648,0.001,28.61,-80.6,0,0.015,-0,57.518,998.398
1.799,417.851,72.642,-13.061,6.695,0.001,28.61,-80.6,0,0.015,-0,57.51,998.313
1.809,420.232,72.511,-13.046,6.743,0.001,28.61,-80.6,0,-0.015,-0.001,57.501,998.228
1.819,422.609,72.381,-13.032,6.79,0.001,28.61,-80.6,0,-0.015,-0,57.493,998.143
1.829,424.982,72.251,-13.017,6.837,0.001,28.61,-80.6,0,-0.015,-0,57.484,998.058
1.839,427.35,72.121,-13.003,6.884,0.001,28.61,-80.6,0,-0.014,-0,57.476,997.973
1.849,429.714,71.991,-12.989,6.932,0.001,28.61,-80.6,0,-0.014,-0,57.468,997.889
1.859,432.074,71.861,-12.976,6.978,0.001,28.61,-80.6,0,-0.013,-0,57.459,997.804
1.869,434.429,71.731,-12.962,7.025,0.001,28.61,-80.6,0,-0.012,-0,57.451,997.72
1.879,436.781,71.602,-12.949,7.072,0.001,28.61,-80.6,0,-0.011,-0,57.442,997.636
1.889,439.128,71.472,-12.936,7.118,0.001,28.61,-80.6,0,-0.01,-0,57.434,997.552
1.899,441.47,71.343,-12.924,7.164,0.001,28.61,-80.6,0,-0.009,-0,57.426,997.468
1.909,443.809,71.214,-12.912,7.21,0.001,28.61,-80.6,0,-0.008,-0,57.417,997.385
1.919,446.143,71.085,-12.9,7.256,0.001,28.61,-80.6,0,-0.006,-0,57.409,997.301
1.929,448.473,70.956,-12.889,7.302,0.001,28.61,-80.6,0,-0.005,-0,57.401,997.218
1.939,450.799,70.827,-12.877,7.347,0.001,28.61,-80.6,0,-0.004,-0,57.392,997.135
1.949,453.121,70.698,-12.866,7.392,0.001,28.61,-80.6,0,-0.003,-0,57.384,997.052
1.959,455.438,70.57,-12.854,7.437,0.001,28.61,-80.6,0,-0.001,-0,57.376,996.969
1.969,457.751,70.441,-12.841,7.482,0.001,28.61,-80.6,0,0,-0,57.368,996.886
1.979,460.06,70.313,-12.829,7.526,0.001,28.61,-80.6,0,0.002,-0,57.359,996.804
1.989,462.365,70.185,-12.817,7.57,0.001,28.61,-80.6,0,0.003,-0,57.351,996.721
1.999,464.666,70.056,-12.805,7.614,0.001,28.61,-80.6,0,0.005,-0,57.343,996.639
2.009,466.962,69.928,-12.794,7.658,0.001,28.61,-80.6,0,0.006,-0,57.335,996.557
2.019,469.254,69.801,-12.783,7.702,0.001,28.61,-80.6,0,0.008,-0,57.327,996.475
2.029,471.542,69.673,-12.772,7.745,0.001,28.61,-80.6,0,0.009,-0,57.318,996.393
2.039,473.826,69.545,-12.761,7.788,0.001,28.61,-80.6,0,0.011,-0,57.31,996.312
2.049,476.105,69.418,-12.75,7.831,0.001,28.61,-80.6,0,0.012,-0,57.302,996.23
2.059,478.381,69.29,-12.74,7.873,0.001,28.61,-80.6,0,0.013,-0,57.294,996.149
2.069,480.652,69.163,-12.73,7.915,0.001,28.61,-80.6,0,0.014,-0,57.286,996.068
2.079,482.919,69.036,-12.721,7.958,0.001,28.61,-80.6,0,0.015,-0,57.278,995.987
2.089,485.182,68.908,-12.712,8,0.001,28.61,-80.6,0,0.016,-0,57.27,995.906
2.099,487.441,68.781,-12.703,8.041,0.001,28.61,-80.6,0,0.016,-0,57.262,995.825
2.109,489.695,68.654,-12.693,8.083,0.001,28.61,-80.6,0,0.017,-0,57.254,995.744
2.119,491.945,68.527,-12.684,8.125,0.001,28.61,-80.6,0,0.017,-0,57.246,995.664
2.129,494.192,68.401,-12.676,8.166,0.001,28.61,-80.6,0,0.017,-0,57.238,995.584
2.139,496.434,68.274,-12.667,8.208,0.001,28.61,-80.6,0,-0.017,-0,57.23,995.504
2.149,498.672,68.147,-12.658,8.249,0.001,28.61,-80.6,0,-0.017,-0,57.222,995.424
2.159,500.905,68.021,-12.649,8.291,0.001,28.61,-80.6,0,-0.017,-0,57.214,995.344
2.169,503.135,67.894,-12.64,8.332,0.001,28.61,-80.6,0,-0.017,-0,57.206,995.264
2.179,505.36,67.768,-12.631,8.374,0.001,28.61,-80.6,0,-0.016,-0,57.198,995.184
2.189,507.582,67.642,-12.622,8.415,0.001,28.61,-80.6,0,-0.016,-0,57.19,995.105
2.199,509.799,67.516,-12.612,8.457,0.001,28.61,-80.6,0,-0.016,-0,57.182,995.026
2.209,512.012,67.389,-12.603,8.498,0.001,28.61,-80.6,0,-0.015,-0,57.174,994.947
2.219,514.221,67.263,-12.593,8.539,0.001,28.61,-80.6,0,-0.015,-0,57.166,994.868
2.229,516.425,67.138,-12.583,8.581,0.001,28.61,-80.6,0,-0.014,-0,57.158,994.789
2.239,518.626,67.012,-12.573,8.622,0.001,28.61,-80.6,0,-0.013,-0,57.15,994.71
2.249,520.822,66.886,-12.563,8.664,0.001,28.61,-80.6,0,-0.013,-0,57.143,994.632
2.259,523.015,66.761,-12.555,8.706,0.001,28.61,-80.6,0,-0.012,-0,57.135,994.553
2.269,525.203,66.635,-12.548,8.747,0.001,28.61,-80.6,0,-0.011,-0,57.127,994.475
2.279,527.387,66.51,-12.54,8.789,0.001,28.61,-80.6,0,-0.01,-0,57.119,994.397
2.289,529.567,66.384,-12.532,8.831,0.001,28.61,-80.6,0,-0.009,-0,57.111,994.319
2.299,531.743,66.259,-12.525,8.872,0.001,28.61,-80.6,0,-0.008,-0,57.104,994.241
2.309,533.915,66.134,-12.517,8.914,0.001,28.61,-80.6,0,-0.007,-0,57.096,994.164
2.319,536.083,66.009,-12.51,8.956,0.001,28.61,-80.6,0,-0.006,-0,57.088,994.086
2.329,538.246,65.884,-12.502,8.998,0.001,28.61,-80.6,0,-0.005,-0,57.081,994.009
2.339,540.406,65.759,-12.494,9.041,0.001,28.61,-80.6,0,-0.003,-0,57.073,993.932
2.349,542.561,65.634,-12.486,9.083,0.001,28.61,-80.6,0,-0.002,-0,57.065,993.855
2.359,544.712,65.509,-12.473,9.126,0.001,28.61,-80.6,0,-0,-0,57.057,993.778
2.369,546.86,65.384,-12.459,9.168,0.001,28.61,-80.6,0,0.001,-0,57.05,993.701
2.379,549.003,65.26,-12.445,9.211,0.001,28.61,-80.6,0,0.002,-0,57.042,993.624
2.389,551.142,65.135,-12.431,9.254,0.001,28.61,-80.6,0,0.004,-0,57.035,993.548
2.399,553.277,65.011,-12.417,9.297,0.001,28.61,-80.6,0,0.005,-0,57.027,993.472
2.409,555.407,64.887,-12.405,9.34,0.001,28.61,-80.6,0,0.006,-0,57.019,993.395
2.419,557.534,64.763,-12.393,9.383,0.001,28.61,-80.6,0,0.006,-0,57.012,993.319
2.429,559.657,64.639,-12.381,9.427,0.001,28.61,-80.6,0,0.007,-0,57.004,993.243
2.439,561.776,64.515,-12.369,9.47,0.001,28.61,-80.6,0,0.008,-0,56.997,993.168
2.449,563.89,64.392,-12.357,9.513,0.001,28.61,-80.6,0,0.009,-0,56.989,993.092
2.459,566.001,64.268,-12.344,9.557,0.001,28.61,-80.6,0,0.009,-0,56.982,993.017
2.469,568.107,64.145,-12.331,9.6,0.001,28.61,-80.6,0,0.01,-0,56.974,992.941
2.479,570.21,64.022,-12.319,9.643,0.001,28.61,-80.6,0,0.01,-0,56.967,992.866
2.489,572.308,63.898,-12.306,9.687,0.001,28.61,-80.6,0,0.01,-0,56.959,992.791
2.499,574.403,63.775,-12.293,9.73,0.001,28.61,-80.6,0,0.01,-0,56.952,992.716
2.509,576.493,63.653,-12.282,9.773,0.001,28.61,-80.6,0,0.01,-0,56.944,992.642
2.519,578.579,63.53,-12.271,9.817,0.001,28.61,-80.6,0,-0.01,-0,56.937,992.567
2.529,580.662,63.407,-12.26,9.86,0.001,28.61,-80.6,0,-0.01,-0,56.929,992.493
2.539,582.74,63.285,-12.25,9.903,0.001,28.61,-80.6,0,-0.01,-0,56.922,992.418
2.549,584.814,63.162,-12.239,9.946,0.001,28.61,-80.6,0,-0.01,-0,56.914,992.344
2.559,586.884,63.04,-12.229,9.989,0.001,28.61,-80.6,0,-0.01,-0,56.907,992.27
2.569,588.951,62.918,-12.219,10.032,0.001,28.61,-80.6,0,-0.01,-0,56.9,992.196
2.579,591.013,62.795,-12.209,10.075,0.001,28.61,-80.6,0,-0.01,-0,56.892,992.123
2.589,593.071,62.673,-12.199,10.118,0.001,28.61,-80.6,0,-0.009,-0,56.885,992.049
2.599,595.125,62.551,-12.189,10.161,0.001,28.61,-80.6,0,-0.009,-0,56.878,991.976
2.609,597.175,62.43,-12.178,10.203,0.001,28.61,-80.6,0,-0.009,-0,56.87,991.902
2.619,599.222,62.308,-12.168,10.246,0.001,28.61,-80.6,0,-0.009,-0,56.863,991.829
2.629,601.264,62.186,-12.157,10.288,0.001,28.61,-80.6,0,-0.008,-0,56.856,991.756
2.639,603.302,62.065,-12.147,10.331,0.001,28.61,-80.6,0,-0.008,-0,56.849,991.683
2.649,605.336,61.943,-12.137,10.373,0.001,28.61,-80.6,0,-0.007,-0,56.841,991.61
2.659,607.367,61.822,-12.126,10.415,0.001,28.61,-80.6,0,-0.007,-0,56.834,991.538
2.669,609.393,61.701,-12.116,10.457,0.001,28.61,-80.6,0,-0.006,-0,56.827,991.465
2.679,611.415,61.58,-12.105,10.499,0.001,28.61,-80.6,0,-0.005,-0,56.82,991.393
2.689,613.434,61.459,-12.095,10.541,0.001,28.61,-80.6,0,-0.005,-0,56.812,991.321
2.699,615.448,61.338,-12.085,10.583,0.001,28.61,-80.6,0,-0.004,-0,56.805,991.249
2.709,617.458,61.217,-12.075,10.624,0.001,28.61,-80.6,0,-0.003,-0,56.798,991.177
2.719,619.465,61.096,-12.066,10.665,0.001,28.61,-80.6,0,-0.002,-0,56.791,991.105
2.729,621.467,60.976,-12.057,10.707,0.001,28.61,-80.6,0,-0.001,-0,56.784,991.034
2.739,623.466,60.855,-12.047,10.748,0.001,28.61,-80.6,0,-0,-0,56.777,990.962
2.749,625.46,60.735,-12.038,10.788,0.001,28.61,-80.6,0,0.001,-0,56.77,990.891
2.759,627.451,60.614,-12.03,10.829,0.001,28.61,-80.6,0,0.002,-0,56.762,990.82
2.769,629.438,60.494,-12.021,10.87,0.002,28.61,-80.6,0,0.002,-0,56.755,990.749
2.779,631.421,60.374,-12.013,10.91,0.002,28.61,-80.6,0,0.003,-0,56.748,990.678
2.789,633.399,60.254,-12.005,10.95,0.002,28.61,-80.6,0,0.004,-0,56.741,990.607
2.799,635.374,60.134,-11.996,10.99,0.002,28.61,-80.6,0,0.004,-0,56.734,990.537
2.809,637.345,60.014,-11.988,11.03,0.002,28.61,-80.6,0,0.005,-0,56.727,990.466
2.819,639.312,59.894,-11.979,11.07,0.002,28.61,-80.6,0,0.006,-0,56.72,990.396
2.829,641.275,59.774,-11.97,11.11,0.002,28.61,-80.6,0,0.006,-0,56.713,990.326
2.839,643.234,59.655,-11.962,11.15,0.002,28.61,-80.6,0,0.007,-0,56.706,990.256
2.849,645.19,59.535,-11.953,11.189,0.002,28.61,-80.6,0,0.007,-0,56.699,990.186
2.859,647.141,59.416,-11.945,11.229,0.002,28.61,-80.6,0,0.008,-0,56.692,990.116
2.869,649.088,59.296,-11.937,11.268,0.002,28.61,-80.6,0,0.008,-0,56.685,990.046
2.879,651.032,59.177,-11.929,11.307,0.002,28.61,-80.6,0,0.009,-0,56.678,989.977
2.889,652.971,59.058,-11.921,11.346,0.002,28.61,-80.6,0,0.009,-0,56.671,989.908
2.899,654.907,58.938,-11.913,11.386,0.002,28.61,-80.6,0,0.009,-0,56.664,989.838
2.909,656.839,58.819,-11.905,11.425,0.002,28.61,-80.6,0,0.009,-0,56.658,989.769
2.919,658.766,58.7,-11.897,11.463,0.002,28.61,-80.6,0,0.01,-0,56.651,989.7
2.929,660.69,58.581,-11.889,11.502,0.002,28.61,-80.6,0,0.01,-0,56.644,989.632
2.939,662.61,58.463,-11.881,11.541,0.002,28.61,-80.6,0,0.01,-0,56.637,989.563
2.949,664.526,58.344,-11.873,11.58,0.002,28.61,-80.6,0,0.01,-0,56.63,989.495
2.959,666.439,58.225,-11.864,11.619,0.002,28.61,-80.6,0,0.01,-0,56.623,989.426
2.969,668.347,58.107,-11.856,11.657,0.002,28.61,-80.6,0,0.01,-0,56.617,989.358
2.979,670.251,57.988,-11.847,11.696,0.002,28.61,-80.6,0,0.01,-0,56.61,989.29
2.989,672.152,57.87,-11.838,11.734,0.002,28.61,-80.6,0,0.01,-0,56.603,989.222
2.999,674.049,57.751,-11.83,11.773,0.002,28.61,-80.6,0,0.01,-0,56.596,989.154
3.009,675.941,57.633,-11.822,11.811,0.002,28.61,-80.6,0,0.01,-0,56.589,989.086
3.019,677.83,57.515,-11.814,11.85,0.002,28.61,-80.6,0,0.01,-0,56.583,989.019
3.029,679.715,57.397,-11.807,11.888,0.002,28.61,-80.6,0,-0.01,-0,56.576,988.952
3.039,681.597,57.279,-11.799,11.927,0.002,28.61,-80.6,0,-0.01,-0,56.569,988.884
3.049,683.474,57.161,-11.792,11.965,0.002,28.61,-80.6,0,-0.01,-0,56.563,988.817
3.059,685.347,57.043,-11.785,12.003,0.002,28.61,-80.6,0,-0.01,-0,56.556,988.75
3.069,687.217,56.925,-11.778,12.041,0.002,28.61,-80.6,0,-0.01,-0,56.549,988.683
3.079,689.082,56.807,-11.772,12.08,0.002,28.61,-80.6,0,-0.01,-0,56.543,988.617
3.089,690.944,56.69,-11.765,12.118,0.002,28.61,-80.6,0,-0.009,-0,56.536,988.55
3.099,692.802,56.572,-11.759,12.156,0.002,28.61,-80.6,0,-0.009,-0,56.529,988.484
3.109,694.656,56.454,-11.751,12.194,0.002,28.61,-80.6,0,-0.009,-0,56.523,988.417
3.119,696.507,56.337,-11.744,12.233,0.002,28.61,-80.6,0,-0.008,-0,56.516,988.351
3.129,698.353,56.22,-11.736,12.271,0.002,28.61,-80.6,0,-0.008,-0,56.51,988.285
3.139,700.196,56.102,-11.728,12.309,0.002,28.61,-80.6,0,-0.007,-0,56.503,988.219
3.149,702.034,55.985,-11.72,12.347,0.002,28.61,-80.6,0,-0.007,-0,56.496,988.154
3.159,703.869,55.868,-11.713,12.386,0.002,28.61,-80.6,0,-0.006,-0,56.49,988.088
3.169,705.7,55.751,-11.706,12.424,0.002,28.61,-80.6,0,-0.005,-0,56.483,988.023
3.179,707.527,55.634,-11.699,12.463,0.002,28.61,-80.6,0,-0.005,-0,56.477,987.957
3.189,709.351,55.517,-11.692,12.501,0.002,28.61,-80.6,0,-0.004,-0,56.47,987.892
3.199,711.17,55.4,-11.684,12.54,0.002,28.61,-80.6,0,-0.004,-0,56.464,987.827
3.209,712.986,55.283,-11.676,12.578,0.002,28.61,-80.6,0,-0.003,-0,56.457,987.762
3.219,714.798,55.166,-11.668,12.617,0.002,28.61,-80.6,0,-0.002,-0,56.451,987.697
3.229,716.606,55.05,-11.66,12.655,0.002,28.61,-80.6,0,-0.002,-0,56.444,987.633
3.239,718.41,54.933,-11.652,12.694,0.002,28.61,-80.6,0,-0.001,-0,56.438,987.568
3.249,720.21,54.817,-11.643,12.733,0.002,28.61,-80.6,0,-0,-0,56.432,987.504
3.259,722.007,54.7,-11.637,12.772,0.002,28.61,-80.6,0,0,-0,56.425,987.44
3.269,723.799,54.584,-11.63,12.81,0.002,28.61,-80.6,0,0.001,-0,56.419,987.376
3.279,725.588,54.468,-11.623,12.849,0.002,28.61,-80.6,0,0.002,-0,56.412,987.312
3.289,727.373,54.351,-11.616,12.888,0.002,28.61,-80.6,0,0.002,-0,56.406,987.248
3.299,729.155,54.235,-11.609,12.927,0.002,28.61,-80.6,0,0.003,-0,56.4,987.184
3.309,730.932,54.119,-11.601,12.966,0.002,28.61,-80.6,0,0.004,-0,56.393,987.121
3.319,732.706,54.003,-11.593,13.005,0.002,28.61,-80.6,0,0.005,-0,56.387,987.057
3.329,734.476,53.887,-11.585,13.044,0.002,28.61,-80.6,0,0.005,-0,56.381,986.994
3.339,736.242,53.772,-11.576,13.084,0.002,28.61,-80.6,0,0.006,-0,56.374,986.931
3.349,738.004,53.656,-11.568,13.123,0.002,28.61,-80.6,0,0.007,-0,56.368,986.868
3.359,739.763,53.54,-11.559,13.162,0.002,28.61,-80.6,0,0.008,-0,56.362,986.805
3.369,741.517,53.425,-11.549,13.202,0.002,28.61,-80.6,0,0.008,-0,56.356,986.742
3.379,743.268,53.309,-11.54,13.241,0.002,28.61,-80.6,0,0.009,-0,56.349,986.68
3.389,745.015,53.194,-11.53,13.281,0.002,28.61,-80.6,0,0.01,-0,56.343,986.617
3.399,746.759,53.079,-11.521,13.32,0.002,28.61,-80.6,0,0.01,-0,56.337,986.555
3.409,748.498,52.964,-11.512,13.36,0.002,28.61,-80.6,0,0.01,-0,56.331,986.493
3.419,750.234,52.848,-11.502,13.399,0.002,28.61,-80.6,0,0.011,-0,56.325,986.431
3.429,751.966,52.733,-11.493,13.439,0.002,28.61,-80.6,0,0.011,-0,56.318,986.369
3.439,753.694,52.619,-11.484,13.479,0.002,28.61,-80.6,0,0.011,-0,56.312,986.307
3.449,755.418,52.504,-11.475,13.518,0.002,28.61,-80.6,0,0.012,-0,56.306,986.245
3.459,757.139,52.389,-11.466,13.558,0.002,28.61,-80.6,0,0.012,-0,56.3,986.184
3.469,758.856,52.274,-11.457,13.597,0.002,28.61,-80.6,0,0.012,-0,56.294,986.122
3.479,760.569,52.16,-11.448,13.637,0.002,28.61,-80.6,0,-0.012,-0,56.288,986.061
3.489,762.279,52.046,-11.439,13.676,0.002,28.61,-80.6,0,-0.012,-0,56.282,986
3.499,763.984,51.931,-11.43,13.716,0.002,28.61,-80.6,0,-0.012,-0,56.276,985.939
3.509,765.686,51.817,-11.422,13.755,0.002,28.61,-80.6,0,-0.011,-0,56.269,985.878
3.519,767.384,51.703,-11.415,13.794,0.002,28.61,-80.6,0,-0.011,-0,56.263,985.818
3.529,769.079,51.589,-11.407,13.834,0.002,28.61,-80.6,0,-0.011,-0,56.257,985.757
3.539,770.769,51.475,-11.399,13.873,0.002,28.61,-80.6,0,-0.011,-0,56.251,985.697
3.549,772.456,51.361,-11.391,13.912,0.002,28.61,-80.6,0,-0.01,-0,56.245,985.636
3.559,774.14,51.247,-11.383,13.951,0.002,28.61,-80.6,0,-0.01,-0,56.239,985.576
3.569,775.819,51.133,-11.375,13.99,0.002,28.61,-80.6,0,-0.01,-0,56.233,985.516
3.579,777.495,51.019,-11.367,14.029,0.002,28.61,-80.6,0,-0.009,-0,56.227,985.456
3.589,779.167,50.906,-11.359,14.068,0.002,28.61,-80.6,0,-0.009,-0,56.221,985.396
3.599,780.835,50.792,-11.351,14.107,0.002,28.61,-80.6,0,-0.008,-0,56.215,985.337
3.609,782.5,50.679,-11.343,14.145,0.002,28.61,-80.6,0,-0.008,-0,56.209,985.277
3.619,784.16,50.565,-11.335,14.184,0.002,28.61,-80.6,0,-0.007,-0,56.204,985.218
3.629,785.817,50.452,-11.327,14.222,0.002,28.61,-80.6,0,-0.006,-0,56.198,985.159
3.639,787.471,50.339,-11.32,14.26,0.002,28.61,-80.6,0,-0.006,-0,56.192,985.1
3.649,789.121,50.226,-11.312,14.298,0.002,28.61,-80.6,0,-0.005,-0,56.186,985.041
3.659,790.767,50.112,-11.305,14.336,0.002,28.61,-80.6,0,-0.004,-0,56.18,984.982
3.669,792.409,49.999,-11.298,14.374,0.002,28.61,-80.6,0,-0.003,-0,56.174,984.923
3.679,794.047,49.886,-11.292,14.412,0.002,28.61,-80.6,0,-0.002,-0,56.168,984.864
3.689,795.682,49.774,-11.285,14.449,0.002,28.61,-80.6,0,-0.002,-0,56.162,984.806
3.699,797.313,49.661,-11.278,14.487,0.002,28.61,-80.6,0,-0.001,-0,56.157,984.748
3.709,798.941,49.548,-11.271,14.524,0.002,28.61,-80.6,0,0,-0,56.151,984.69
3.719,800.564,49.435,-11.264,14.561,0.002,28.61,-80.6,0,0.001,-0,56.145,984.631
3.729,802.185,49.323,-11.257,14.598,0.002,28.61,-80.6,0,0.002,-0,56.139,984.574
3.739,803.801,49.21,-11.25,14.635,0.002,28.61,-80.6,0,0.003,-0,56.134,984.516
3.749,805.414,49.098,-11.243,14.672,0.002,28.61,-80.6,0,0.003,-0,56.128,984.458
3.759,807.023,48.985,-11.236,14.709,0.002,28.61,-80.6,0,0.004,-0,56.122,984.401
3.769,808.628,48.873,-11.23,14.745,0.002,28.61,-80.6,0,0.005,-0,56.116,984.343
3.779,810.229,48.761,-11.224,14.781,0.002,28.61,-80.6,0,0.006,-0,56.111,984.286
3.789,811.827,48.649,-11.218,14.817,0.002,28.61,-80.6,0,0.007,-0,56.105,984.229
3.799,813.422,48.536,-11.212,14.853,0.002,28.61,-80.6,0,0.007,-0,56.099,984.172
3.809,815.012,48.424,-11.205,14.889,0.002,28.61,-80.6,0,0.008,-0,56.094,984.115
3.819,816.599,48.312,-11.199,14.925,0.002,28.61,-80.6,0,0.008,-0,56.088,984.058
3.829,818.182,48.2,-11.193,14.961,0.002,28.61,-80.6,0,0.009,-0,56.082,984.002
3.839,819.762,48.088,-11.188,14.997,0.003,28.61,-80.6,0,0.009,-0,56.077,983.945
3.849,821.338,47.977,-11.182,15.032,0.003,28.61,-80.6,0,0.01,-0,56.071,983.889
3.859,822.91,47.865,-11.176,15.068,0.003,28.61,-80.6,0,0.01,-0,56.065,983.833
3.869,824.478,47.753,-11.17,15.103,0.003,28.61,-80.6,0,0.01,-0,56.06,983.777
3.879,826.043,47.641,-11.164,15.138,0.003,28.61,-80.6,0,0.011,-0,56.054,983.721
3.889,827.604,47.53,-11.158,15.174,0.003,28.61,-80.6,0,0.011,-0,56.049,983.665
3.899,829.162,47.418,-11.153,15.209,0.003,28.61,-80.6,0,0.011,-0,56.043,983.609
3.909,830.716,47.307,-11.146,15.244,0.003,28.61,-80.6,0,0.011,-0,56.038,983.554
3.919,832.266,47.195,-11.14,15.279,0.003,28.61,-80.6,0,0.011,-0,56.032,983.498
3.929,833.813,47.084,-11.134,15.314,0.003,28.61,-80.6,0,0.012,-0,56.026,983.443
3.939,835.356,46.973,-11.128,15.349,0.003,28.61,-80.6,0,0.012,-0,56.021,983.388
3.949,836.895,46.861,-11.122,15.384,0.003,28.61,-80.6,0,0.012,-0,56.015,983.333
3.959,838.431,46.75,-11.116,15.419,0.003,28.61,-80.6,0,0.012,-0,56.01,983.278
3.969,839.962,46.639,-11.11,15.454,0.003,28.61,-80.6,0,0.012,-0,56.005,983.223
3.979,841.491,46.528,-11.104,15.489,0.003,28.61,-80.6,0,0.012,-0,55.999,983.168
3.989,843.016,46.417,-11.098,15.524,0.003,28.61,-80.6,0,0.012,-0,55.994,983.114
3.999,844.537,46.306,-11.092,15.559,0.003,28.61,-80.6,0,0.012,-0,55.988,983.06
4.009,846.054,46.195,-11.086,15.593,0.003,28.61,-80.6,0,0.012,-0.001,55.983,983.005
4.019,847.568,46.084,-11.08,15.628,0.003,28.61,-80.6,0,0,0,55.977,982.951
4.029,849.078,45.974,-11.074,15.663,0.003,28.61,-80.6,0,-0.012,-0.001,55.972,982.897
4.039,850.584,45.863,-11.068,15.697,0.003,28.61,-80.6,0,-0.012,-0,55.967,982.843
4.049,852.087,45.752,-11.062,15.732,0.003,28.61,-80.6,0,-0.012,-0,55.961,982.79
4.059,853.586,45.642,-11.057,15.767,0.003,28.61,-80.6,0,-0.012,-0,55.956,982.736
4.069,855.082,45.531,-11.051,15.801,0.003,28.61,-80.6,0,-0.012,-0,55.951,982.683
4.079,856.574,45.421,-11.046,15.836,0.003,28.61,-80.6,0,-0.012,-0,55.945,982.629
4.089,858.062,45.31,-11.04,15.87,0.003,28.61,-80.6,0,-0.012,-0,55.94,982.576
4.099,859.547,45.2,-11.034,15.905,0.003,28.61,-80.6,0,-0.012,-0,55.935,982.523
4.109,861.028,45.089,-11.03,15.94,0.003,28.61,-80.6,0,-0.011,-0,55.929,982.47
4.119,862.506,44.979,-11.025,15.974,0.003,28.61,-80.6,0,-0.011,-0,55.924,982.417
4.129,863.98,44.869,-11.021,16.009,0.003,28.61,-80.6,0,-0.011,-0,55.919,982.365
4.139,865.45,44.759,-11.017,16.043,0.003,28.61,-80.6,0,-0.011,-0,55.914,982.312
4.149,866.917,44.649,-11.012,16.078,0.003,28.61,-80.6,0,-0.01,-0,55.908,982.26
4.159,868.38,44.539,-11.007,16.112,0.003,28.61,-80.6,0,-0.01,-0,55.903,982.207
4.169,869.839,44.428,-11.001,16.147,0.003,28.61,-80.6,0,-0.009,-0,55.898,982.155
4.179,871.295,44.318,-10.996,16.182,0.003,28.61,-80.6,0,-0.009,-0,55.893,982.103
4.189,872.747,44.209,-10.99,16.216,0.003,28.61,-80.6,0,-0.009,-0,55.888,982.051
4.199,874.196,44.099,-10.985,16.251,0.003,28.61,-80.6,0,-0.008,-0,55.882,981.999
4.209,875.641,43.989,-10.98,16.286,0.003,28.61,-80.6,0,-0.008,-0,55.877,981.948
4.219,877.082,43.879,-10.975,16.32,0.003,28.61,-80.6,0,-0.007,-0,55.872,981.896
4.229,878.52,43.769,-10.971,16.355,0.003,28.61,-80.6,0,-0.007,-0,55.867,981.845
4.239,879.954,43.66,-10.966,16.39,0.003,28.61,-80.6,0,-0.006,-0,55.862,981.793
4.249,881.385,43.55,-10.961,16.425,0.003,28.61,-80.6,0,-0.005,-0,55.857,981.742
4.259,882.812,43.44,-10.955,16.46,0.003,28.61,-80.6,0,-0.005,-0,55.852,981.691
4.269,884.235,43.331,-10.949,16.495,0.003,28.61,-80.6,0,-0.004,-0,55.847,981.64
4.279,885.655,43.221,-10.943,16.53,0.003,28.61,-80.6,0,-0.004,-0,55.842,981.59
4.289,887.071,43.112,-10.937,16.565,0.003,28.61,-80.6,0,-0.003,-0,55.837,981.539
4.299,888.484,43.003,-10.93,16.6,0.003,28.61,-80.6,0,-0.003,-0,55.832,981.489
4.309,889.893,42.893,-10.924,16.635,0.003,28.61,-80.6,0,-0.002,-0,55.826,981.438
4.319,891.298,42.784,-10.917,16.67,0.003,28.61,-80.6,0,-0.002,-0,55.821,981.388
4.329,892.7,42.675,-10.91,16.706,0.003,28.61,-80.6,0,-0.001,-0,55.816,981.338
4.339,894.099,42.566,-10.903,16.741,0.003,28.61,-80.6,0,-0.001,-0,55.812,981.288
4.349,895.493,42.457,-10.896,16.776,0.003,28.61,-80.6,0,-0,-0,55.807,981.238
4.359,896.885,42.348,-10.891,16.812,0.003,28.61,-80.6,0,0,-0,55.802,981.188
4.369,898.272,42.239,-10.885,16.847,0.003,28.61,-80.6,0,0.001,-0,55.797,981.139
4.379,899.656,42.13,-10.88,16.882,0.003,28.61,-80.6,0,0.001,-0,55.792,981.089
4.389,901.037,42.022,-10.875,16.918,0.003,28.61,-80.6,0,0.001,-0,55.787,981.04
4.399,902.413,41.913,-10.869,16.953,0.003,28.61,-80.6,0,0.002,-0,55.782,980.991
4.409,903.787,41.804,-10.864,16.989,0.003,28.61,-80.6,0,0.002,-0,55.777,980.941
4.419,905.157,41.696,-10.858,17.024,0.003,28.61,-80.6,0,0.003,-0,55.772,980.893
4.429,906.523,41.587,-10.853,17.06,0.003,28.61,-80.6,0,0.003,-0,55.767,980.844
4.439,907.885,41.479,-10.848,17.095,0.003,28.61,-80.6,0,0.003,-0,55.762,980.795
4.449,909.244,41.37,-10.842,17.131,0.003,28.61,-80.6,0,0.004,-0,55.757,980.746
4.459,910.6,41.262,-10.835,17.166,0.003,28.61,-80.6,0,0.004,-0,55.753,980.698
4.469,911.952,41.153,-10.828,17.202,0.003,28.61,-80.6,0,0.005,-0,55.748,980.65
4.479,913.3,41.045,-10.821,17.238,0.003,28.61,-80.6,0,0.005,-0,55.743,980.601
4.489,914.645,40.937,-10.815,17.273,0.003,28.61,-80.6,0,0.005,-0,55.738,980.553
4.499,915.986,40.829,-10.808,17.309,0.003,28.61,-80.6,0,0.006,-0,55.733,980.505
4.509,917.324,40.721,-10.802,17.345,0.003,28.61,-80.6,0,0.006,-0,55.729,980.458
4.519,918.658,40.613,-10.797,17.38,0.003,28.61,-80.6,0,0.006,-0,55.724,980.41
4.529,919.989,40.505,-10.791,17.416,0.003,28.61,-80.6,0,0.006,-0,55.719,980.362
4.539,921.316,40.397,-10.786,17.452,0.003,28.61,-80.6,0,0.007,-0,55.714,980.315
4.549,922.64,40.289,-10.781,17.487,0.003,28.61,-80.6,0,0.007,-0,55.71,980.268
4.559,923.96,40.181,-10.774,17.523,0.003,28.61,-80.6,0,0.007,-0,55.705,980.22
4.569,925.276,40.074,-10.767,17.559,0.003,28.61,-80.6,0,0.007,-0,55.7,980.173
4.579,926.589,39.966,-10.76,17.595,0.003,28.61,-80.6,0,0.007,-0,55.696,980.126
4.589,927.899,39.859,-10.754,17.63,0.003,28.61,-80.6,0,0.007,-0,55.691,980.08
4.599,929.205,39.751,-10.747,17.666,0.003,28.61,-80.6,0,0.007,-0.001,55.686,980.033
4.609,930.507,39.644,-10.742,17.702,0.003,28.61,-80.6,0,0.007,-0.001,55.682,979.986
4.619,931.806,39.536,-10.737,17.737,0.003,28.61,-80.6,0,0.007,-0.001,55.677,979.94
4.629,933.101,39.429,-10.731,17.773,0.003,28.61,-80.6,0,0.007,-0,55.672,979.894
4.639,934.393,39.322,-10.726,17.808,0.003,28.61,-80.6,0,0.007,-0,55.668,979.847
4.649,935.682,39.214,-10.721,17.844,0.003,28.61,-80.6,0,0.007,-0,55.663,979.801
4.659,936.966,39.107,-10.715,17.879,0.003,28.61,-80.6,0,-0.007,-0,55.659,979.755
4.669,938.248,39,-10.708,17.915,0.003,28.61,-80.6,0,-0.007,-0,55.654,979.71
4.679,939.525,38.893,-10.701,17.95,0.003,28.61,-80.6,0,-0.007,-0,55.65,979.664
4.689,940.8,38.786,-10.695,17.986,0.004,28.61,-80.6,0,-0.007,-0,55.645,979.618
4.699,942.07,38.679,-10.688,18.021,0.004,28.61,-80.6,0,-0.007,-0,55.64,979.573
4.709,943.338,38.572,-10.683,18.057,0.004,28.61,-80.6,0,-0.007,-0,55.636,979.528
4.719,944.601,38.465,-10.677,18.092,0.004,28.61,-80.6,0,-0.006,-0,55.631,979.482
4.729,945.862,38.359,-10.672,18.127,0.004,28.61,-80.6,0,-0.006,-0,55.627,979.437
4.739,947.118,38.252,-10.667,18.162,0.004,28.61,-80.6,0,-0.006,-0,55.622,979.392
4.749,948.372,38.145,-10.662,18.197,0.004,28.61,-80.6,0,-0.005,-0,55.618,979.348
4.759,949.621,38.039,-10.656,18.232,0.004,28.61,-80.6,0,-0.005,-0,55.613,979.303
4.769,950.868,37.932,-10.651,18.267,0.004,28.61,-80.6,0,-0.004,-0,55.609,979.258
4.779,952.11,37.826,-10.645,18.302,0.004,28.61,-80.6,0,-0.004,-0,55.605,979.214
4.789,953.35,37.719,-10.64,18.337,0.004,28.61,-80.6,0,-0.003,-0,55.6,979.17
4.799,954.585,37.613,-10.634,18.371,0.004,28.61,-80.6,0,-0.003,-0,55.596,979.126
4.809,955.818,37.507,-10.629,18.406,0.004,28.61,-80.6,0,-0.002,-0,55.591,979.081
4.819,957.046,37.4,-10.625,18.44,0.004,28.61,-80.6,0,-0.002,-0,55.587,979.038
4.829,958.272,37.294,-10.62,18.475,0.004,28.61,-80.6,0,-0.001,-0,55.583,978.994
4.839,959.494,37.188,-10.615,18.509,0.004,28.61,-80.6,0,-0.001,-0,55.578,978.95
4.849,960.712,37.082,-10.611,18.543,0.004,28.61,-80.6,0,-0,-0,55.574,978.907
4.859,961.927,36.976,-10.606,18.577,0.004,28.61,-80.6,0,-0,-0,55.57,978.863
4.869,963.138,36.87,-10.601,18.611,0.004,28.61,-80.6,0,0,-0,55.565,978.82
4.879,964.346,36.764,-10.596,18.645,0.004,28.61,-80.6,0,0.001,-0,55.561,978.777
4.889,965.55,36.658,-10.591,18.679,0.004,28.61,-80.6,0,0.001,-0,55.557,978.734
4.899,966.751,36.552,-10.586,18.713,0.004,28.61,-80.6,0,0.002,-0,55.552,978.691
4.909,967.949,36.446,-10.581,18.746,0.004,28.61,-80.6,0,0.003,-0,55.548,978.648
4.919,969.143,36.34,-10.577,18.78,0.004,28.61,-80.6,0,0.003,-0,55.544,978.605
4.929,970.333,36.235,-10.572,18.814,0.004,28.61,-80.6,0,0.004,-0,55.54,978.563
4.939,971.52,36.129,-10.567,18.847,0.004,28.61,-80.6,0,0.004,-0,55.535,978.52
4.949,972.704,36.023,-10.562,18.88,0.004,28.61,-80.6,0,0.005,-0,55.531,978.478
4.959,973.884,35.918,-10.558,18.913,0.004,28.61,-80.6,0,0.005,-0,55.527,978.436
4.969,975.061,35.812,-10.553,18.947,0.004,28.61,-80.6,0,0.006,-0,55.523,978.394
4.979,976.234,35.707,-10.549,18.98,0.004,28.61,-80.6,0,0.006,-0,55.519,978.352
4.989,977.404,35.601,-10.545,19.013,0.004,28.61,-80.6,0,0.007,-0,55.514,978.31
4.999,978.57,35.496,-10.541,19.045,0.004,28.61,-80.6,0,0.007,-0,55.51,978.268
5.009,979.733,35.39,-10.536,19.078,0.004,28.61,-80.6,0,0.008,-0,55.506,978.227
5.019,980.892,35.285,-10.531,19.111,0.004,28.61,-80.6,0,0.008,-0,55.502,978.185
5.029,982.048,35.18,-10.527,19.143,0.004,28.61,-80.6,0,0.009,-0,55.498,978.144
5.039,983.201,35.074,-10.522,19.176,0.004,28.61,-80.6,0,0.009,-0,55.494,978.103
5.049,984.35,34.969,-10.518,19.208,0.004,28.61,-80.6,0,0.009,-0,55.49,978.062
5.059,985.495,34.864,-10.513,19.241,0.004,28.61,-80.6,0,0.01,-0,55.486,978.021
5.069,986.637,34.759,-10.508,19.273,0.004,28.61,-80.6,0,0.01,-0,55.481,977.98
5.079,987.776,34.654,-10.504,19.305,0.004,28.61,-80.6,0,0.011,-0,55.477,977.939
5.089,988.911,34.549,-10.499,19.337,0.004,28.61,-80.6,0,0.011,-0,55.473,977.898
5.099,990.043,34.444,-10.494,19.369,0.004,28.61,-80.6,0,0.012,-0,55.469,977.858
5.109,991.171,34.339,-10.49,19.401,0.004,28.61,-80.6,0,0.012,-0,55.465,977.818
5.119,992.296,34.234,-10.485,19.433,0.004,28.61,-80.6,0,0.013,-0,55.461,977.777
5.129,993.418,34.129,-10.481,19.465,0.004,28.61,-80.6,0,0.013,-0,55.457,977.737
5.139,994.536,34.024,-10.477,19.496,0.004,28.61,-80.6,0,0.014,-0,55.453,977.697
5.149,995.65,33.92,-10.472,19.528,0.004,28.61,-80.6,0,0.014,-0,55.449,977.658
5.159,996.761,33.815,-10.469,19.559,0.004,28.61,-80.6,0,0.015,-0,55.445,977.618
5.169,997.869,33.71,-10.465,19.591,0.004,28.61,-80.6,0,0.015,-0,55.441,977.578
5.179,998.973,33.606,-10.462,19.622,0.004,28.61,-80.6,0,0.016,-0,55.438,977.539
5.189,1000.074,33.501,-10.459,19.653,0.004,28.61,-80.6,0,0.016,-0,55.434,977.499
5.199,1001.172,33.397,-10.455,19.685,0.004,28.61,-80.6,0,0.016,-0,55.43,977.46
5.209,1002.266,33.292,-10.452,19.716,0.004,28.61,-80.6,0,0.017,-0,55.426,977.421
5.219,1003.356,33.187,-10.449,19.747,0.004,28.61,-80.6,0,0.017,-0,55.422,977.382
5.229,1004.443,33.083,-10.445,19.778,0.004,28.61,-80.6,0,0.017,-0,55.418,977.343
5.239,1005.527,32.979,-10.442,19.809,0.004,28.61,-80.6,0,0.017,-0,55.414,977.304
5.249,1006.607,32.874,-10.439,19.84,0.004,28.61,-80.6,0,0.017,-0,55.41,977.266
5.259,1007.684,32.77,-10.435,19.871,0.004,28.61,-80.6,0,0.017,-0,55.406,977.227
5.269,1008.757,32.665,-10.432,19.901,0.004,28.61,-80.6,0,0.017,-0,55.403,977.189
5.279,1009.827,32.561,-10.428,19.932,0.004,28.61,-80.6,0,0.018,-0,55.399,977.151
5.289,1010.894,32.457,-10.424,19.963,0.004,28.61,-80.6,0,0.018,-0,55.395,977.113
5.299,1011.957,32.353,-10.421,19.994,0.004,28.61,-80.6,0,0.018,-0,55.391,977.075
5.309,1013.017,32.248,-10.418,20.024,0.004,28.61,-80.6,0,0.018,-0,55.387,977.037
5.319,1014.073,32.144,-10.415,20.055,0.004,28.61,-80.6,0,-0.018,-0,55.384,976.999
5.329,1015.126,32.04,-10.413,20.086,0.004,28.61,-80.6,0,-0.018,-0,55.38,976.961
5.339,1016.176,31.936,-10.411,20.117,0.004,28.61,-80.6,0,-0.018,-0,55.376,976.924
5.349,1017.222,31.832,-10.408,20.147,0.004,28.61,-80.6,0,-0.017,-0,55.372,976.886
5.359,1018.264,31.728,-10.405,20.178,0.004,28.61,-80.6,0,-0.017,-0,55.369,976.849
5.369,1019.303,31.624,-10.402,20.208,0.004,28.61,-80.6,0,-0.017,-0,55.365,976.812
5.379,1020.339,31.52,-10.398,20.239,0.004,28.61,-80.6,0,-0.017,-0,55.361,976.775
5.389,1021.372,31.416,-10.395,20.27,0.004,28.61,-80.6,0,-0.017,-0,55.358,976.738
5.399,1022.401,31.312,-10.391,20.3,0.004,28.61,-80.6,0,-0.017,-0,55.354,976.701
5.409,1023.426,31.208,-10.388,20.331,0.004,28.61,-80.6,0,-0.016,-0,55.35,976.665
5.419,1024.448,31.104,-10.384,20.362,0.004,28.61,-80.6,0,-0.016,-0,55.347,976.628
5.429,1025.467,31,-10.38,20.392,0.004,28.61,-80.6,0,-0.016,-0,55.343,976.592
5.439,1026.483,30.897,-10.376,20.423,0.004,28.61,-80.6,0,-0.016,-0,55.339,976.555
5.449,1027.495,30.793,-10.372,20.454,0.004,28.61,-80.6,0,-0.016,-0,55.336,976.519
5.459,1028.503,30.689,-10.369,20.485,0.004,28.61,-80.6,0,-0.015,-0,55.332,976.483
5.469,1029.508,30.585,-10.367,20.515,0.004,28.61,-80.6,0,-0.015,-0,55.329,976.447
5.479,1030.51,30.482,-10.364,20.546,0.004,28.61,-80.6,0,-0.015,-0,55.325,976.411
5.489,1031.508,30.378,-10.362,20.577,0.005,28.61,-80.6,0,-0.015,-0,55.321,976.376
5.499,1032.503,30.275,-10.359,20.607,0.005,28.61,-80.6,0,-0.014,-0,55.318,976.34
5.509,1033.495,30.171,-10.356,20.638,0.005,28.61,-80.6,0,-0.014,-0,55.314,976.305
5.519,1034.483,30.067,-10.353,20.669,0.005,28.61,-80.6,0,-0.014,-0,55.311,976.269
5.529,1035.468,29.964,-10.35,20.7,0.005,28.61,-80.6,0,-0.013,-0,55.307,976.234
5.539,1036.449,29.86,-10.347,20.731,0.005,28.61,-80.6,0,-0.013,-0,55.304,976.199
5.549,1037.427,29.757,-10.344,20.761,0.005,28.61,-80.6,0,-0.013,-0,55.3,976.164
5.559,1038.402,29.654,-10.34,20.792,0.005,28.61,-80.6,0,-0.012,-0,55.297,976.129
5.569,1039.373,29.55,-10.336,20.823,0.005,28.61,-80.6,0,-0.012,-0,55.293,976.095
5.579,1040.341,29.447,-10.332,20.854,0.005,28.61,-80.6,0,-0.012,-0,55.29,976.06
5.589,1041.305,29.344,-10.328,20.885,0.005,28.61,-80.6,0,-0.011,-0,55.287,976.025
5.599,1042.266,29.24,-10.324,20.916,0.005,28.61,-80.6,0,-0.011,-0,55.283,975.991
5.609,1043.224,29.137,-10.323,20.947,0.005,28.61,-80.6,0,-0.011,-0,55.28,975.957
5.619,1044.178,29.034,-10.321,20.978,0.005,28.61,-80.6,0,-0.01,-0,55.276,975.923
5.629,1045.129,28.931,-10.32,21.009,0.005,28.61,-80.6,0,-0.01,-0,55.273,975.889
5.639,1046.076,28.827,-10.319,21.04,0.005,28.61,-80.6,0,-0.009,-0,55.27,975.855
5.649,1047.021,28.724,-10.318,21.071,0.005,28.61,-80.6,0,-0.009,-0,55.266,975.821
5.659,1047.961,28.621,-10.314,21.103,0.005,28.61,-80.6,0,-0.008,-0,55.263,975.788
5.669,1048.899,28.518,-10.31,21.134,0.005,28.61,-80.6,0,-0.008,-0,55.259,975.754
5.679,1049.832,28.415,-10.306,21.165,0.005,28.61,-80.6,0,-0.007,-0,55.256,975.721
5.689,1050.763,28.312,-10.302,21.197,0.005,28.61,-80.6,0,-0.007,-0,55.253,975.687
5.699,1051.69,28.209,-10.298,21.228,0.005,28.61,-80.6,0,-0.006,-0,55.25,975.654
5.709,1052.614,28.106,-10.293,21.259,0.005,28.61,-80.6,0,-0.006,-0,55.246,975.621
5.719,1053.534,28.003,-10.288,21.291,0.005,28.61,-80.6,0,-0.005,-0,55.243,975.588
5.729,1054.451,27.9,-10.283,21.322,0.005,28.61,-80.6,0,-0.005,-0,55.24,975.556
5.739,1055.365,27.797,-10.278,21.354,0.005,28.61,-80.6,0,-0.005,-0,55.236,975.523
5.749,1056.275,27.695,-10.274,21.385,0.005,28.61,-80.6,0,-0.004,-0,55.233,975.49
5.759,1057.182,27.592,-10.27,21.417,0.005,28.61,-80.6,0,-0.004,-0,55.23,975.458
5.769,1058.086,27.489,-10.266,21.449,0.005,28.61,-80.6,0,-0.004,-0,55.227,975.426
5.779,1058.986,27.387,-10.262,21.48,0.005,28.61,-80.6,0,-0.003,-0,55.223,975.393
5.789,1059.883,27.284,-10.257,21.512,0.005,28.61,-80.6,0,-0.003,-0,55.22,975.361
5.799,1060.776,27.181,-10.253,21.544,0.005,28.61,-80.6,0,-0.003,-0,55.217,975.329
5.809,1061.667,27.079,-10.249,21.575,0.005,28.61,-80.6,0,-0.002,-0,55.214,975.298
5.819,1062.553,26.976,-10.244,21.607,0.005,28.61,-80.6,0,-0.002,-0,55.211,975.266
5.829,1063.437,26.874,-10.239,21.639,0.005,28.61,-80.6,0,-0.002,-0,55.208,975.234
5.839,1064.317,26.772,-10.234,21.671,0.005,28.61,-80.6,0,-0.002,-0,55.204,975.203
5.849,1065.193,26.669,-10.23,21.702,0.005,28.61,-80.6,0,-0.001,-0,55.201,975.172
5.859,1066.067,26.567,-10.226,21.734,0.005,28.61,-80.6,0,-0.001,-0,55.198,975.14
5.869,1066.937,26.465,-10.223,21.766,0.005,28.61,-80.6,0,-0.001,-0,55.195,975.109
5.879,1067.803,26.363,-10.22,21.798,0.005,28.61,-80.6,0,-0.001,-0,55.192,975.078
5.889,1068.666,26.26,-10.217,21.829,0.005,28.61,-80.6,0,-0.001,-0,55.189,975.047
5.899,1069.526,26.158,-10.214,21.861,0.005,28.61,-80.6,0,-0.001,-0,55.186,975.017
5.909,1070.383,26.056,-10.211,21.893,0.005,28.61,-80.6,0,-0,-0,55.183,974.986
5.919,1071.236,25.954,-10.208,21.925,0.005,28.61,-80.6,0,-0,-0,55.18,974.956
5.929,1072.086,25.852,-10.205,21.957,0.005,28.61,-80.6,0,-0,-0,55.177,974.925
5.939,1072.932,25.75,-10.202,21.988,0.005,28.61,-80.6,0,0,-0,55.174,974.895
5.949,1073.775,25.648,-10.199,22.02,0.005,28.61,-80.6,0,0,-0,55.171,974.865
5.959,1074.615,25.546,-10.195,22.052,0.005,28.61,-80.6,0,0,-0,55.168,974.835
5.969,1075.452,25.444,-10.192,22.084,0.005,28.61,-80.6,0,0.001,-0,55.165,974.805
5.979,1076.285,25.342,-10.188,22.116,0.005,28.61,-80.6,0,0.001,-0,55.162,974.775
5.989,1077.115,25.24,-10.184,22.148,0.005,28.61,-80.6,0,0.001,-0,55.159,974.745
5.999,1077.941,25.138,-10.181,22.179,0.005,28.61,-80.6,0,0.001,-0,55.156,974.716
6.009,1078.764,25.037,-10.176,22.211,0.005,28.61,-80.6,0,0.001,-0,55.153,974.686
6.019,1079.584,24.935,-10.172,22.243,0.005,28.61,-80.6,0,0.001,-0,55.15,974.657
6.029,1080.4,24.833,-10.167,22.275,0.005,28.61,-80.6,0,0.001,-0,55.147,974.628
6.039,1081.213,24.732,-10.163,22.307,0.005,28.61,-80.6,0,0.002,-0,55.144,974.599
6.049,1082.023,24.63,-10.159,22.339,0.005,28.61,-80.6,0,0.002,-0,55.141,974.57
6.059,1082.829,24.528,-10.155,22.37,0.005,28.61,-80.6,0,0.002,-0,55.138,974.541
6.069,1083.632,24.427,-10.152,22.402,0.005,28.61,-80.6,0,0.002,-0,55.136,974.512
6.079,1084.432,24.325,-10.148,22.434,0.005,28.61,-80.6,0,-0.002,-0,55.133,974.484
6.089,1085.229,24.224,-10.145,22.466,0.005,28.61,-80.6,0,-0.002,-0,55.13,974.455
6.099,1086.022,24.122,-10.142,22.497,0.005,28.61,-80.6,0,-0.002,-0,55.127,974.427
6.109,1086.811,24.021,-10.138,22.529,0.005,28.61,-80.6,0,-0.002,-0,55.124,974.399
6.119,1087.598,23.92,-10.134,22.561,0.005,28.61,-80.6,0,-0.002,-0,55.121,974.371
6.129,1088.381,23.818,-10.13,22.593,0.005,28.61,-80.6,0,-0.001,-0,55.119,974.343
6.139,1089.161,23.717,-10.127,22.624,0.005,28.61,-80.6,0,-0.001,-0,55.116,974.315
6.149,1089.937,23.616,-10.123,22.656,0.006,28.61,-80.6,0,-0.001,-0,55.113,974.287
6.159,1090.71,23.515,-10.12,22.687,0.006,28.61,-80.6,0,-0.001,-0,55.11,974.259
6.169,1091.48,23.413,-10.118,22.719,0.006,28.61,-80.6,0,-0.001,-0,55.108,974.232
6.179,1092.247,23.312,-10.115,22.751,0.006,28.61,-80.6,0,-0.001,-0,55.105,974.204
6.189,1093.01,23.211,-10.112,22.782,0.006,28.61,-80.6,0,-0.001,-0,55.102,974.177
6.199,1093.77,23.11,-10.11,22.814,0.006,28.61,-80.6,0,-0.001,-0,55.099,974.15
6.209,1094.526,23.009,-10.107,22.845,0.006,28.61,-80.6,0,-0.001,-0,55.097,974.123
6.219,1095.28,22.908,-10.104,22.876,0.006,28.61,-80.6,0,-0.001,-0,55.094,974.096
6.229,1096.029,22.807,-10.102,22.908,0.006,28.61,-80.6,0,-0.001,-0,55.091,974.069
6.239,1096.776,22.706,-10.099,22.939,0.006,28.61,-80.6,0,-0,-0,55.089,974.043
6.249,1097.519,22.605,-10.097,22.971,0.006,28.61,-80.6,0,-0,-0,55.086,974.016
6.259,1098.259,22.504,-10.094,23.002,0.006,28.61,-80.6,0,-0,-0,55.083,973.99
6.269,1098.996,22.403,-10.091,23.033,0.006,28.61,-80.6,0,-0,-0,55.081,973.963
6.279,1099.729,22.302,-10.088,23.065,0.006,28.61,-80.6,0,-0,-0,55.078,973.937
6.289,1100.459,22.201,-10.085,23.096,0.006,28.61,-80.6,0,-0,-0,55.076,973.911
6.299,1101.186,22.1,-10.083,23.127,0.006,28.61,-80.6,0,-0,-0,55.073,973.885
6.309,1101.909,22,-10.079,23.158,0.006,28.61,-80.6,0,-0,-0,55.07,973.859
6.319,1102.63,21.899,-10.076,23.189,0.006,28.61,-80.6,0,0,-0,55.068,973.833
6.329,1103.346,21.798,-10.072,23.221,0.006,28.61,-80.6,0,0,-0,55.065,973.808
6.339,1104.06,21.697,-10.069,23.252,0.006,28.61,-80.6,0,0,-0,55.063,973.782
6.349,1104.77,21.597,-10.066,23.283,0.006,28.61,-80.6,0,0,-0,55.06,973.757
6.359,1105.477,21.496,-10.063,23.314,0.006,28.61,-80.6,0,0.001,-0,55.058,973.731
6.369,1106.181,21.395,-10.059,23.345,0.006,28.61,-80.6,0,0.001,-0,55.055,973.706
6.379,1106.881,21.295,-10.056,23.376,0.006,28.61,-80.6,0,0.001,-0,55.053,973.681
6.389,1107.578,21.194,-10.053,23.407,0.006,28.61,-80.6,0,0.001,-0,55.05,973.656
6.399,1108.272,21.094,-10.05,23.438,0.006,28.61,-80.6,0,0.001,-0,55.048,973.632
6.409,1108.962,20.993,-10.048,23.469,0.006,28.61,-80.6,0,0.002,-0,55.045,973.607
6.419,1109.649,20.893,-10.045,23.5,0.006,28.61,-80.6,0,0.002,-0,55.043,973.582
6.429,1110.333,20.792,-10.043,23.53,0.006,28.61,-80.6,0,0.002,-0,55.04,973.558
6.439,1111.013,20.692,-10.041,23.561,0.006,28.61,-80.6,0,0.002,-0,55.038,973.534
6.449,1111.691,20.592,-10.039,23.592,0.006,28.61,-80.6,0,0.002,-0,55.036,973.509
6.459,1112.365,20.491,-10.036,23.623,0.006,28.61,-80.6,0,0.002,-0,55.033,973.485
6.469,1113.035,20.391,-10.033,23.653,0.006,28.61,-80.6,0,0.003,-0,55.031,973.461
6.479,1113.703,20.291,-10.03,23.684,0.006,28.61,-80.6,0,0.003,-0,55.028,973.437
6.489,1114.367,20.19,-10.028,23.714,0.006,28.61,-80.6,0,0.003,-0,55.026,973.414
6.499,1115.027,20.09,-10.025,23.745,0.006,28.61,-80.6,0,0.003,-0,55.024,973.39
6.509,1115.685,19.99,-10.022,23.775,0.006,28.61,-80.6,0,0.003,-0,55.021,973.367
6.519,1116.339,19.89,-10.019,23.806,0.006,28.61,-80.6,0,0.004,-0,55.019,973.343
6.529,1116.99,19.789,-10.017,23.836,0.006,28.61,-80.6,0,0.004,-0,55.017,973.32
6.539,1117.638,19.689,-10.014,23.867,0.006,28.61,-80.6,0,0.004,-0,55.014,973.297
6.549,1118.282,19.589,-10.012,23.897,0.006,28.61,-80.6,0,0.004,-0,55.012,973.274
6.559,1118.923,19.489,-10.01,23.927,0.006,28.61,-80.6,0,0.005,-0,55.01,973.251
6.569,1119.561,19.389,-10.008,23.958,0.006,28.61,-80.6,0,0.005,-0,55.007,973.228
6.579,1120.195,19.289,-10.006,23.988,0.006,28.61,-80.6,0,0.005,-0,55.005,973.205
6.589,1120.826,19.189,-10.004,24.018,0.006,28.61,-80.6,0,0.005,-0,55.003,973.183
6.599,1121.454,19.089,-10.002,24.048,0.006,28.61,-80.6,0,0.005,-0,55.001,973.16
6.609,1122.079,18.989,-9.999,24.078,0.006,28.61,-80.6,0,0.006,-0,54.998,973.138
6.619,1122.7,18.889,-9.996,24.108,0.006,28.61,-80.6,0,0.006,-0,54.996,973.116
6.629,1123.318,18.789,-9.994,24.138,0.006,28.61,-80.6,0,0.006,-0,54.994,973.094
6.639,1123.933,18.689,-9.991,24.168,0.006,28.61,-80.6,0,0.006,-0,54.992,973.072
6.649,1124.545,18.589,-9.989,24.198,0.006,28.61,-80.6,0,0.007,-0,54.99,973.05
6.659,1125.153,18.489,-9.987,24.228,0.006,28.61,-80.6,0,0.007,-0,54.988,973.028
6.669,1125.758,18.389,-9.985,24.258,0.006,28.61,-80.6,0,0.007,-0,54.985,973.006
6.679,1126.36,18.289,-9.982,24.288,0.006,28.61,-80.6,0,0.007,-0,54.983,972.985
6.689,1126.958,18.19,-9.98,24.317,0.006,28.61,-80.6,0,0.007,-0,54.981,972.964
6.699,1127.553,18.09,-9.978,24.347,0.006,28.61,-80.6,0,0.008,-0,54.979,972.942
6.709,1128.145,17.99,-9.976,24.377,0.006,28.61,-80.6,0,0.008,-0,54.977,972.921
6.719,1128.734,17.89,-9.974,24.406,0.006,28.61,-80.6,0,0.008,-0,54.975,972.9
6.729,1129.319,17.791,-9.972,24.436,0.006,28.61,-80.6,0,0.008,-0,54.973,972.879
6.739,1129.901,17.691,-9.97,24.465,0.006,28.61,-80.6,0,0.008,-0,54.971,972.858
6.749,1130.48,17.591,-9.968,24.495,0.006,28.61,-80.6,0,0.009,-0,54.969,972.838
6.759,1131.055,17.491,-9.966,24.524,0.006,28.61,-80.6,0,0.009,-0,54.966,972.817
6.769,1131.627,17.392,-9.964,24.554,0.006,28.61,-80.6,0,0.009,-0,54.964,972.797
6.779,1132.196,17.292,-9.963,24.583,0.006,28.61,-80.6,0,0.009,-0,54.962,972.776
6.789,1132.762,17.193,-9.961,24.613,0.007,28.61,-80.6,0,0.009,-0,54.96,972.756
6.799,1133.324,17.093,-9.959,24.642,0.007,28.61,-80.6,0,0.01,-0,54.958,972.736
6.809,1133.884,16.993,-9.957,24.671,0.007,28.61,-80.6,0,0.01,-0,54.956,972.716
6.819,1134.44,16.894,-9.955,24.7,0.007,28.61,-80.6,0,0.01,-0,54.954,972.696
6.829,1134.992,16.794,-9.953,24.73,0.007,28.61,-80.6,0,0.01,-0,54.952,972.676
6.839,1135.542,16.695,-9.951,24.759,0.007,28.61,-80.6,0,0.01,-0,54.95,972.657
6.849,1136.088,16.595,-9.949,24.788,0.007,28.61,-80.6,0,0.01,-0,54.949,972.637
6.859,1136.63,16.496,-9.948,24.817,0.007,28.61,-80.6,0,0.011,-0,54.947,972.618
6.869,1137.17,16.396,-9.946,24.846,0.007,28.61,-80.6,0,0.011,-0,54.945,972.599
6.879,1137.706,16.297,-9.944,24.875,0.007,28.61,-80.6,0,0.011,-0,54.943,972.579
6.889,1138.239,16.197,-9.942,24.904,0.007,28.61,-80.6,0,0.011,-0,54.941,972.56
6.899,1138.769,16.098,-9.94,24.933,0.007,28.61,-80.6,0,0.011,-0,54.939,972.541
6.909,1139.296,15.999,-9.938,24.962,0.007,28.61,-80.6,0,0.011,-0,54.937,972.523
6.919,1139.819,15.899,-9.936,24.991,0.007,28.61,-80.6,0,0.011,-0,54.935,972.504
6.929,1140.339,15.8,-9.933,25.02,0.007,28.61,-80.6,0,0.012,-0,54.933,972.485
6.939,1140.856,15.701,-9.931,25.049,0.007,28.61,-80.6,0,0.012,-0,54.932,972.467
6.949,1141.369,15.601,-9.929,25.078,0.007,28.61,-80.6,0,0.012,-0,54.93,972.448
6.959,1141.879,15.502,-9.927,25.107,0.007,28.61,-80.6,0,0.012,-0,54.928,972.43
6.969,1142.386,15.403,-9.925,25.136,0.007,28.61,-80.6,0,0.012,-0,54.926,972.412
6.979,1142.89,15.303,-9.924,25.165,0.007,28.61,-80.6,0,0.012,-0,54.924,972.394
